pidx,jhno,pno,url,status,name,yomi,spot,lat,lng,zoom,image
690,21,1,https://japan-heritage.bunka.go.jp/ja/culturalproperties/result/1553/,国史跡,慧日寺跡,えにちじあと,福島県磐梯町,37.567031600000035,139.98526100000004,18,https://japan-heritage.bunka.go.jp/ja/datas/cache/images/2022/08/15/500x343_2ae395417f98b42be3d881be00011165_96a8fc7ec0f0f344bdf554ed3daee45a9e761f15.jpeg
691,21,2,https://japan-heritage.bunka.go.jp/ja/culturalproperties/result/1554/,国重文（工芸品）,白銅三鈷杵,はくどうさんこしょ,福島県磐梯町,37.567031600000035,139.98526100000004,18,https://japan-heritage.bunka.go.jp/ja/datas/cache/images/2022/08/15/500x343_2ae395417f98b42be3d881be00011165_6766a04811cc2c0d0620f17da24e52424f475243.jpeg
692,21,3,https://japan-heritage.bunka.go.jp/ja/culturalproperties/result/1555/,県重文（歴史資料）,絹本著色恵日寺絵図,,福島県磐梯町,37.567031600000035,139.98526100000004,18,https://japan-heritage.bunka.go.jp/ja/datas/cache/images/2022/08/15/500x343_2ae395417f98b42be3d881be00011165_62c07cabbedd731872b9ff0fb1f88705c3bcea28.jpeg
693,21,4,https://japan-heritage.bunka.go.jp/ja/culturalproperties/result/1556/,町有形（彫刻）,厩嶽山馬頭観音菩薩坐像,,福島県磐梯町,37.567031600000035,139.98526100000004,18,https://japan-heritage.bunka.go.jp/ja/datas/cache/images/2022/08/15/500x343_2ae395417f98b42be3d881be00011165_21183e99d8437cbacf1256bf43892870e0f58e62.jpeg
694,21,5,https://japan-heritage.bunka.go.jp/ja/culturalproperties/result/1557/,未指定,磐梯神社,,福島県磐梯町,37.5711795,140.10479039999996,18,https://japan-heritage.bunka.go.jp/ja/datas/cache/images/2022/08/15/500x343_2ae395417f98b42be3d881be00011165_a6b02cd7ffb258eb4a96914c33d08e8066e7b4a3.jpeg
695,21,6,https://japan-heritage.bunka.go.jp/ja/culturalproperties/result/1558/,町有形（建造物）,不動院龍宝寺不動堂,,福島県磐梯町,37.56703160000006,139.98526100000004,18,https://japan-heritage.bunka.go.jp/ja/datas/cache/images/2022/08/15/500x343_2ae395417f98b42be3d881be00011165_7d316e3df7d557dc7d3a0bdffb07dfb388b85e0d.jpeg
696,21,7,https://japan-heritage.bunka.go.jp/ja/culturalproperties/result/1559/,町有形（建造物）,慧日寺薬師堂,,福島県磐梯町,37.56738700000003,139.98685999999998,19,https://japan-heritage.bunka.go.jp/ja/datas/cache/images/2022/08/15/500x343_2ae395417f98b42be3d881be00011165_1e6e9846a2e5ab42a476552162b5c4b5283c2d63.jpeg
697,21,8,https://japan-heritage.bunka.go.jp/ja/culturalproperties/result/1560/,国重文（建造物）,勝常寺薬師堂,しょうじょうじやくしどう,福島県湯川村,37.56352649999999,139.87009899999998,18,https://japan-heritage.bunka.go.jp/ja/datas/cache/images/2022/08/15/500x343_2ae395417f98b42be3d881be00011165_e84d3dd3d92827dab527defbdff3bda015a0b7a7.jpeg
698,21,9,https://japan-heritage.bunka.go.jp/ja/culturalproperties/result/1561/,未指定（有形文化財）,北山薬師堂,,福島県北塩原村,37.66664200000003,139.9402504,15,https://japan-heritage.bunka.go.jp/ja/datas/cache/images/2022/08/15/500x343_2ae395417f98b42be3d881be00011165_d63c04a6ade677ff64f28d580984eb04d541226f.jpeg
699,21,10,https://japan-heritage.bunka.go.jp/ja/culturalproperties/result/1562/,国重文（彫刻）,上宇内薬師・木造薬師如来坐像,かみうないやくし・もくぞうやくしにょらいざぞう,福島県会津坂下町,37.58907840000001,139.81007869999996,18,https://japan-heritage.bunka.go.jp/ja/datas/cache/images/2022/08/15/500x343_2ae395417f98b42be3d881be00011165_9558a2bb8e0f8128c4dbc8b3aac39ec43a4f8e89.jpeg
700,21,11,https://japan-heritage.bunka.go.jp/ja/culturalproperties/result/1563/,未指定（有形文化財）,野寺薬師堂,,福島県会津若松市,37.45489930000004,139.92980090000003,18,https://japan-heritage.bunka.go.jp/ja/datas/cache/images/2022/08/15/500x343_2ae395417f98b42be3d881be00011165_0df2b9e9eca14df13d7770491bc2d90664f9d35e.jpeg
701,21,12,https://japan-heritage.bunka.go.jp/ja/culturalproperties/result/1564/,国重文（建造物）,藤倉二階堂・延命寺地蔵堂,ふじくらにかいどう・えんめいじじぞうどう,福島県会津若松市,37.533829000000004,139.931958,18,https://japan-heritage.bunka.go.jp/ja/datas/cache/images/2022/08/15/500x343_2ae395417f98b42be3d881be00011165_f0116e24e12eef6442f977d1bd61fb702c1fd696.jpeg
702,21,13,https://japan-heritage.bunka.go.jp/ja/culturalproperties/result/1565/,国宝（彫刻）,勝常寺・木造薬師如来坐像,しょうじょうじ・もくぞうやくしにょらいざぞう,福島県湯川村,37.56352649999999,139.87009899999998,18,https://japan-heritage.bunka.go.jp/ja/datas/cache/images/2022/08/15/500x343_2ae395417f98b42be3d881be00011165_8ea9fa3660caa40c14133a7831b0b2d04ec3cdeb.jpeg
703,21,14,https://japan-heritage.bunka.go.jp/ja/culturalproperties/result/1566/,国重文（彫刻）,中善寺・木造薬師如来坐像,ちゅうぜんじ・もくぞうやくしにょらいざぞう,福島県喜多方市,37.6699348,139.90826689999994,18,https://japan-heritage.bunka.go.jp/ja/datas/cache/images/2022/08/15/500x343_2ae395417f98b42be3d881be00011165_6cc74ba3c9a861750615c2a7b348580caca50a6c.jpeg
704,21,15,https://japan-heritage.bunka.go.jp/ja/culturalproperties/result/1567/,国重文（彫刻）,願成寺・木造阿弥陀如来及両脇侍坐像,がんじょうじ・もくぞうあみだにょらいおよびりょうきょうじざぞう,福島県喜多方市,37.68791100000001,139.86314100000004,18,https://japan-heritage.bunka.go.jp/ja/datas/cache/images/2022/08/15/500x343_2ae395417f98b42be3d881be00011165_4abfa4468c22a42c1df92f7f71d9c17e25464f3a.jpeg
705,21,16,https://japan-heritage.bunka.go.jp/ja/culturalproperties/result/1568/,国重文（建造物）,円満寺観音堂,えんまんじかんのんどう,福島県西会津町,37.544383899999985,139.66770859999997,18,https://japan-heritage.bunka.go.jp/ja/datas/cache/images/2022/08/15/500x343_2ae395417f98b42be3d881be00011165_f4b6c80a56e69ac7fef24bdb3c9c32df6ce7019a.jpeg
706,21,17,https://japan-heritage.bunka.go.jp/ja/culturalproperties/result/1569/,国重文（建造物）,八葉寺阿弥陀堂,はちようじあみだどう,福島県会津若松市,37.56263399999999,139.93309829999998,18,https://japan-heritage.bunka.go.jp/ja/datas/cache/images/2022/08/15/500x343_2ae395417f98b42be3d881be00011165_3f0c1e3557fac381d0f2325054055435e7a65281.jpeg
707,21,18,https://japan-heritage.bunka.go.jp/ja/culturalproperties/result/1570/,県重文（彫刻）,新宮熊野神社の文珠堂・木造文珠菩薩騎獅像,,福島県喜多方市,37.61907469999999,139.83017240000004,18,https://japan-heritage.bunka.go.jp/ja/datas/cache/images/2022/08/15/500x343_2ae395417f98b42be3d881be00011165_f72492d86549a35305f11192d7b1e1db2d223add.jpeg
708,21,19,https://japan-heritage.bunka.go.jp/ja/culturalproperties/result/1571/,県重文（彫刻）,宮崎聖観音堂木造聖観音坐像,,福島県金山町,37.476634800000014,139.53039360000002,18,https://japan-heritage.bunka.go.jp/ja/datas/cache/images/2022/08/15/500x343_2ae395417f98b42be3d881be00011165_7104cfbc77f12a8670c376d97876112d1125ab0b.jpeg
709,21,20,https://japan-heritage.bunka.go.jp/ja/culturalproperties/result/1572/,町指定有形文化財,松音寺木造薬師如来坐像,,福島県三島町,37.47596870000003,139.6640721,18,https://japan-heritage.bunka.go.jp/ja/datas/cache/images/2022/08/15/500x343_2ae395417f98b42be3d881be00011165_7f2fbe994bc49d4397b611ba884139550967eff2.jpeg
710,21,21,https://japan-heritage.bunka.go.jp/ja/culturalproperties/result/1573/,未指定（有形文化財）,檜枝岐の石碑・石仏群,,福島県檜枝岐村,37.0241443,139.38894600000003,18,https://japan-heritage.bunka.go.jp/ja/datas/cache/images/2022/08/15/500x343_2ae395417f98b42be3d881be00011165_edcb21ce5a878790b04fa2ff0d73a6611cf3a171.jpeg
711,21,22,https://japan-heritage.bunka.go.jp/ja/culturalproperties/result/1574/,未指定,会津三十三観音,,福島県会津若松市福島県喜多方市福島県西会津町福島県会津坂下町福島県湯川村福島県柳津町福島県会津美里町,,,,
712,21,23,https://japan-heritage.bunka.go.jp/ja/culturalproperties/result/1575/,未指定,第1番札所大木観音,,福島県喜多方市,37.60839070000003,139.8458018,18,https://japan-heritage.bunka.go.jp/ja/datas/images/2022/08/15/dc362c8f730177c48bb6d8dd023cace87dc24e6f.jpeg
713,21,24,https://japan-heritage.bunka.go.jp/ja/culturalproperties/result/1576/,未指定,第2番札所松野観音,,福島県喜多方市,37.63756215162795,139.8340264029464,17,https://japan-heritage.bunka.go.jphttps://japan-heritage.bunka.go.jp/ja/files/images/home/noimage.jpg
714,21,25,https://japan-heritage.bunka.go.jp/ja/culturalproperties/result/1577/,未指定,第3番札所綾金観音,,福島県喜多方市,37.632669500000034,139.86048430000005,18,https://japan-heritage.bunka.go.jphttps://japan-heritage.bunka.go.jp/ja/files/images/home/noimage.jpg
715,21,26,https://japan-heritage.bunka.go.jp/ja/culturalproperties/result/1578/,未指定,第4番札所高吉観音,,福島県喜多方市,37.63708060000002,139.87034649999998,18,https://japan-heritage.bunka.go.jphttps://japan-heritage.bunka.go.jp/ja/files/images/home/noimage.jpg
716,21,27,https://japan-heritage.bunka.go.jp/ja/culturalproperties/result/1579/,未指定,第5番札所熱塩観音,,福島県喜多方市,37.728738100000015,139.88638330000003,18,https://japan-heritage.bunka.go.jphttps://japan-heritage.bunka.go.jp/ja/files/images/home/noimage.jpg
717,21,28,https://japan-heritage.bunka.go.jp/ja/culturalproperties/result/1580/,未指定,第6番札所勝観音,,福島県喜多方市,37.648222600000004,139.896837,18,https://japan-heritage.bunka.go.jp/ja/datas/images/2022/08/15/23b2215e89bb73ccaab206ce2a7e7963034cb9a1.jpeg
718,21,29,https://japan-heritage.bunka.go.jp/ja/culturalproperties/result/1581/,未指定,第7番札所熊倉観音,,福島県喜多方市,37.64319370000001,139.9274395,18,https://japan-heritage.bunka.go.jphttps://japan-heritage.bunka.go.jp/ja/files/images/home/noimage.jpg
719,21,30,https://japan-heritage.bunka.go.jp/ja/culturalproperties/result/1582/,未指定,第8番札所竹屋観音,,福島県喜多方市,37.60320820000001,139.91773920000003,18,https://japan-heritage.bunka.go.jp/ja/datas/images/2022/08/15/e84d3dd3d92827dab527defbdff3bda015a0b7a7.jpeg
720,21,31,https://japan-heritage.bunka.go.jp/ja/culturalproperties/result/1583/,未指定,第9番札所遠田観音,,福島県喜多方市,37.58988799999999,139.87492210000005,18,https://japan-heritage.bunka.go.jp/ja/datas/images/2022/08/15/1e6e9846a2e5ab42a476552162b5c4b5283c2d63.jpeg
721,21,32,https://japan-heritage.bunka.go.jp/ja/culturalproperties/result/1584/,未指定,第10番札所勝常観音,,福島県湯川村,37.5635199,139.87009779999994,18,https://japan-heritage.bunka.go.jphttps://japan-heritage.bunka.go.jp/ja/files/images/home/noimage.jpg
722,21,33,https://japan-heritage.bunka.go.jp/ja/culturalproperties/result/1585/,未指定,第11番札所束原観音,,福島県会津坂下町,37.53982079999999,139.86104839999996,18,https://japan-heritage.bunka.go.jp/ja/datas/images/2022/08/15/4abfa4468c22a42c1df92f7f71d9c17e25464f3a.jpeg
723,21,34,https://japan-heritage.bunka.go.jp/ja/culturalproperties/result/1586/,未指定,第12番札所田村山観音,,福島県会津若松市,37.517189300000005,139.85803839999994,18,https://japan-heritage.bunka.go.jphttps://japan-heritage.bunka.go.jp/ja/files/images/home/noimage.jpg
724,21,35,https://japan-heritage.bunka.go.jp/ja/culturalproperties/result/1587/,未指定,第13番札所舘観音,,福島県会津若松市,37.51797650000001,139.8552704,18,https://japan-heritage.bunka.go.jp/ja/datas/images/2022/08/15/7f2fbe994bc49d4397b611ba884139550967eff2.jpeg
725,21,36,https://japan-heritage.bunka.go.jp/ja/culturalproperties/result/1588/,未指定,第14番札所下荒井観音,,福島県会津若松市,37.502795099999986,139.86546499999997,18,https://japan-heritage.bunka.go.jp/ja/datas/images/2022/08/15/5db4ad9c405647eaad4f2a0b41150a8f797f5418.jpeg
726,21,37,https://japan-heritage.bunka.go.jp/ja/culturalproperties/result/1589/,未指定,第15番札所高瀬観音,,福島県会津若松市,37.51447480000002,139.8956597,18,https://japan-heritage.bunka.go.jphttps://japan-heritage.bunka.go.jp/ja/files/images/home/noimage.jpg
727,21,38,https://japan-heritage.bunka.go.jp/ja/culturalproperties/result/1590/,未指定,第16番札所平沢観音,,福島県会津若松市,37.51874660000002,139.90720869999996,18,https://japan-heritage.bunka.go.jphttps://japan-heritage.bunka.go.jp/ja/files/images/home/noimage.jpg
728,21,39,https://japan-heritage.bunka.go.jp/ja/culturalproperties/result/1591/,未指定,第17番札所中ノ明観音,,福島県会津若松市,37.51623620000001,139.91714360000003,18,https://japan-heritage.bunka.go.jp/ja/datas/images/2022/08/15/e4eaaba70bdebb4382f27fa7943b2fd40623d2a9.jpeg
729,21,40,https://japan-heritage.bunka.go.jp/ja/culturalproperties/result/1592/,未指定,第18番札所滝沢観音,,福島県会津若松市,37.502804800000014,139.96471199999996,18,https://japan-heritage.bunka.go.jphttps://japan-heritage.bunka.go.jp/ja/files/images/home/noimage.jpg
730,21,41,https://japan-heritage.bunka.go.jp/ja/culturalproperties/result/1593/,未指定,第19番札所石塚観音,,福島県会津若松市,37.48654500000001,139.916025,18,https://japan-heritage.bunka.go.jphttps://japan-heritage.bunka.go.jp/ja/files/images/home/noimage.jpg
731,21,42,https://japan-heritage.bunka.go.jp/ja/culturalproperties/result/1594/,未指定,第20番札所御山観音,,福島県会津若松市,37.45566550000001,139.9373885,18,https://japan-heritage.bunka.go.jphttps://japan-heritage.bunka.go.jp/ja/files/images/home/noimage.jpg
732,21,43,https://japan-heritage.bunka.go.jp/ja/culturalproperties/result/1595/,未指定,第21番札所左下り観音,,福島県会津美里町,37.418275699999995,139.89662269999997,18,https://japan-heritage.bunka.go.jp/ja/datas/images/2022/08/15/be792abd923bfc2715b9f964b2b6c1f4e239cc60.jpeg
733,21,44,https://japan-heritage.bunka.go.jp/ja/culturalproperties/result/1596/,未指定,第22番札所相川観音,,福島県会津美里町,37.4338319,139.88928080000005,18,https://japan-heritage.bunka.go.jp/ja/datas/images/2022/08/15/d4c616efaba1289bee201d47706995019e5db396.jpeg
734,21,45,https://japan-heritage.bunka.go.jp/ja/culturalproperties/result/1597/,未指定,第23番札所高倉観音,,福島県会津美里町,37.44584309999998,139.8799199,18,https://japan-heritage.bunka.go.jphttps://japan-heritage.bunka.go.jp/ja/files/images/home/noimage.jpg
735,21,46,https://japan-heritage.bunka.go.jp/ja/culturalproperties/result/1598/,未指定,第24番札所関山観音,,福島県会津美里町,37.4127543,139.87405119999994,18,https://japan-heritage.bunka.go.jp/ja/datas/images/2022/08/15/be792abd923bfc2715b9f964b2b6c1f4e239cc60.jpeg
736,21,47,https://japan-heritage.bunka.go.jp/ja/culturalproperties/result/1599/,未指定,第25番札所領家観音,,福島県会津美里町,37.441778900000024,139.84969139999998,18,https://japan-heritage.bunka.go.jp/ja/datas/images/2022/08/15/dc362c8f730177c48bb6d8dd023cace87dc24e6f.jpeg
737,21,48,https://japan-heritage.bunka.go.jp/ja/culturalproperties/result/1600/,未指定,第26番札所富岡観音,,福島県会津美里町,37.44107280000001,139.84526970000002,18,https://japan-heritage.bunka.go.jp/ja/datas/images/2022/08/15/75d8a2be743becbf8411e6d1f0e003f9037658dc.jpeg
738,21,49,https://japan-heritage.bunka.go.jp/ja/culturalproperties/result/1601/,未指定,第27番札所大岩観音,,福島県会津美里町,37.42577649999997,139.7797716,18,https://japan-heritage.bunka.go.jphttps://japan-heritage.bunka.go.jp/ja/files/images/home/noimage.jpg
739,21,50,https://japan-heritage.bunka.go.jp/ja/culturalproperties/result/1602/,未指定,第28番札所高田観音,,福島県会津美里町,37.464120400000034,139.8424602,18,https://japan-heritage.bunka.go.jphttps://japan-heritage.bunka.go.jp/ja/files/images/home/noimage.jpg
740,21,51,https://japan-heritage.bunka.go.jp/ja/culturalproperties/result/1603/,未指定,第29番札所雀林観音,,福島県会津美里町,37.48809720000001,139.8133957,18,https://japan-heritage.bunka.go.jphttps://japan-heritage.bunka.go.jp/ja/files/images/home/noimage.jpg
741,21,52,https://japan-heritage.bunka.go.jp/ja/culturalproperties/result/1604/,未指定,第30番札所中田観音,,福島県会津美里町,37.50227179999999,139.822581,18,https://japan-heritage.bunka.go.jphttps://japan-heritage.bunka.go.jp/ja/files/images/home/noimage.jpg
742,21,53,https://japan-heritage.bunka.go.jp/ja/culturalproperties/result/1605/,未指定,第31番札所立木観音,,福島県会津坂下町,37.57494000000002,139.79941070000007,18,https://japan-heritage.bunka.go.jphttps://japan-heritage.bunka.go.jp/ja/files/images/home/noimage.jpg
743,21,54,https://japan-heritage.bunka.go.jp/ja/culturalproperties/result/1606/,未指定,第32番札所青津観音,,福島県会津坂下町,37.592412000000024,139.82956409999997,18,https://japan-heritage.bunka.go.jphttps://japan-heritage.bunka.go.jp/ja/files/images/home/noimage.jpg
744,21,55,https://japan-heritage.bunka.go.jp/ja/culturalproperties/result/1607/,未指定,第33番札所御池観音,,福島県会津坂下町,37.57593579999999,139.83899539999993,18,https://japan-heritage.bunka.go.jp/ja/datas/images/2022/08/15/1e6e9846a2e5ab42a476552162b5c4b5283c2d63.jpeg
745,21,56,https://japan-heritage.bunka.go.jp/ja/culturalproperties/result/1608/,未指定,番外札所1浮身観音,,福島県会津美里町,37.464342,139.83907239999996,18,https://japan-heritage.bunka.go.jp/ja/datas/images/2022/08/15/305496d94da72488cbf7338a588f0a28a7e940a2.jpeg
746,21,57,https://japan-heritage.bunka.go.jp/ja/culturalproperties/result/1609/,未指定,番外札所2柳津観音,,福島県柳津町,37.53309250000001,139.72571659999994,18,https://japan-heritage.bunka.go.jphttps://japan-heritage.bunka.go.jp/ja/files/images/home/noimage.jpg
747,21,58,https://japan-heritage.bunka.go.jp/ja/culturalproperties/result/1610/,未指定,番外札所3鳥追観音,,福島県西会津町,37.57570530000004,139.6413159,18,https://japan-heritage.bunka.go.jphttps://japan-heritage.bunka.go.jp/ja/files/images/home/noimage.jpg
748,21,59,https://japan-heritage.bunka.go.jp/ja/culturalproperties/result/1611/,国重文(建造物),勝福寺・勝福寺観音堂,しょうふくじ・しょうふくじかんのんどう,福島県喜多方市,37.64821989999999,139.8968344,18,https://japan-heritage.bunka.go.jp/ja/datas/cache/images/2022/08/15/500x343_2ae395417f98b42be3d881be00011165_e4eaaba70bdebb4382f27fa7943b2fd40623d2a9.jpeg
749,21,60,https://japan-heritage.bunka.go.jp/ja/culturalproperties/result/1612/,県重文(彫刻),観音寺・木造如意輪観音坐像,,福島県喜多方市,37.603223499999984,139.91725010000005,19,https://japan-heritage.bunka.go.jp/ja/datas/cache/images/2022/08/15/500x343_2ae395417f98b42be3d881be00011165_461017317458a71c39495bdeb97bdd3417f4c967.jpeg
750,21,61,https://japan-heritage.bunka.go.jp/ja/culturalproperties/result/1613/,国重文（彫刻）,勝常寺・木造十一面観音立像、木造聖観音立像,しょうじょうじ・もくぞうじゅういちめんかんのんりゅうぞう、もくぞうしょうかんのんりゅうぞう,福島県湯川村,37.56352649999999,139.87009899999998,18,https://japan-heritage.bunka.go.jp/ja/datas/cache/images/2022/08/15/500x343_2ae395417f98b42be3d881be00011165_c686827377c76e8d7d234acac87d1e63921f1d98.jpeg
751,21,62,https://japan-heritage.bunka.go.jp/ja/culturalproperties/result/1614/,県重文（建造物）,左下山観音寺・左下り観音堂,,福島県会津美里町,37.418275699999995,139.89662269999997,17,https://japan-heritage.bunka.go.jp/ja/datas/cache/images/2022/08/15/500x343_2ae395417f98b42be3d881be00011165_fcb0f87b8c04cfd3e41f79c4ebe8f0f611138651.jpeg
752,21,63,https://japan-heritage.bunka.go.jp/ja/culturalproperties/result/1615/,国重文(建造物),福生寺観音堂,ふくしょうじかんのんどう,福島県会津美里町,37.44208272072265,139.84414727195576,17,https://japan-heritage.bunka.go.jp/ja/datas/cache/images/2022/08/15/500x343_2ae395417f98b42be3d881be00011165_b9c94a524722cdbd650945f7a6c4f74bbfaf4fe7.jpeg
753,21,64,https://japan-heritage.bunka.go.jp/ja/culturalproperties/result/1616/,県重文（建造物）,法用寺観音堂,,福島県会津美里町,37.488097199999984,139.8133957,17,https://japan-heritage.bunka.go.jp/ja/datas/cache/images/2022/08/15/500x343_2ae395417f98b42be3d881be00011165_dbb9f9b3c9262f3df798b56d08d26a2ace4948fe.jpeg
754,21,65,https://japan-heritage.bunka.go.jp/ja/culturalproperties/result/1617/,県重文(彫刻),法用寺・木造十一面観音立像、木造十一面観音立像,,福島県会津美里町,37.488097199999984,139.8133957,17,https://japan-heritage.bunka.go.jp/ja/datas/cache/images/2022/08/15/500x343_2ae395417f98b42be3d881be00011165_3d6db873ab3d29fca4b7875d6413a86a9e9fce0f.jpeg
755,21,66,https://japan-heritage.bunka.go.jp/ja/culturalproperties/result/1618/,国重文(建造物),弘安寺・弘安寺旧観音堂厨子,こうあんじ・こうあんじきゅうかんのんどうずし,福島県会津美里町,37.50227180000001,139.822581,17,https://japan-heritage.bunka.go.jp/ja/datas/cache/images/2022/08/15/500x343_2ae395417f98b42be3d881be00011165_75d8a2be743becbf8411e6d1f0e003f9037658dc.jpeg
756,21,67,https://japan-heritage.bunka.go.jp/ja/culturalproperties/result/1619/,国重文（彫刻）,弘安寺・弘安寺銅造十一面観音及び脇侍不動明王・地蔵菩薩立像,こうあんじ・こうあんじどうぞうじゅういちめんかんのんおよびわきじふどうみょうおう・じぞうぼさつりつぞう,福島県会津美里町,37.50227180000001,139.822581,17,https://japan-heritage.bunka.go.jp/ja/datas/cache/images/2022/08/15/500x343_2ae395417f98b42be3d881be00011165_cd597f866adc13b6d6c4c789ff6ca5acdb324fd2.jpeg
757,21,68,https://japan-heritage.bunka.go.jp/ja/culturalproperties/result/1620/,国重文(建造物),恵隆寺・恵隆寺観音堂,えりゅうじ・えりゅうじかんのんどう,福島県会津坂下町,37.57487990000004,139.79957760000002,17,https://japan-heritage.bunka.go.jp/ja/datas/cache/images/2022/08/15/500x343_2ae395417f98b42be3d881be00011165_9cb9d9c641a322a55f8e7a96a9b28ee17328bf5d.jpeg
758,21,69,https://japan-heritage.bunka.go.jp/ja/culturalproperties/result/1621/,国重文（彫刻）,恵隆寺・木造千手観音立像,えりゅうじ・もくぞうせんじゅかんのんりゅうぞう,福島県会津坂下町,37.57487990000004,139.79957760000002,17,https://japan-heritage.bunka.go.jp/ja/datas/cache/images/2022/08/15/500x343_2ae395417f98b42be3d881be00011165_be792abd923bfc2715b9f964b2b6c1f4e239cc60.jpeg
759,21,70,https://japan-heritage.bunka.go.jp/ja/culturalproperties/result/1622/,未指定（ 有形文化財）,圓藏寺・菊光堂,,福島県柳津町,37.533072999999995,139.72471389999998,18,https://japan-heritage.bunka.go.jp/ja/datas/cache/images/2022/08/15/500x343_2ae395417f98b42be3d881be00011165_71b15592584d3e2578622c8277d614c1e65b945c.jpeg
760,21,71,https://japan-heritage.bunka.go.jp/ja/culturalproperties/result/1623/,国重文（建造物）,圓藏寺・奥之院弁天堂,えんぞうじ・おくのいんべんてんどう,福島県柳津町,37.533072999999995,139.72471389999998,18,https://japan-heritage.bunka.go.jp/ja/datas/cache/images/2022/08/15/500x343_2ae395417f98b42be3d881be00011165_dc362c8f730177c48bb6d8dd023cace87dc24e6f.jpeg
761,21,72,https://japan-heritage.bunka.go.jp/ja/culturalproperties/result/1624/,県重文（建造物）,如法寺観音堂附仁王門,,福島県西会津町,37.575721,139.64132700000005,18,https://japan-heritage.bunka.go.jp/ja/datas/cache/images/2022/08/15/500x343_2ae395417f98b42be3d881be00011165_5d77e95774ba781b58507932678e641a9b49aaed.jpeg
762,21,73,https://japan-heritage.bunka.go.jp/ja/culturalproperties/result/1625/,町有形（工芸品）,如法寺・銅像聖観音坐像,,福島県西会津町,37.575721,139.64132700000005,18,https://japan-heritage.bunka.go.jp/ja/datas/cache/images/2022/08/15/500x343_2ae395417f98b42be3d881be00011165_5db4ad9c405647eaad4f2a0b41150a8f797f5418.jpeg
763,21,74,https://japan-heritage.bunka.go.jp/ja/culturalproperties/result/1626/,県重文(彫刻),如法寺・木造聖観音立像、木造金剛力士像,,福島県西会津町,37.575721,139.64132700000005,18,https://japan-heritage.bunka.go.jp/ja/datas/cache/images/2022/08/15/500x343_2ae395417f98b42be3d881be00011165_5d0e7a632094f2a2bf05d8b7f411a01f98affb9b.jpeg
764,21,75,https://japan-heritage.bunka.go.jp/ja/culturalproperties/result/1627/,未指定,御蔵入三十三観音,,福島県下郷町福島県只見町福島県南会津町福島県昭和村福島県会津美里町,,,,
765,21,76,https://japan-heritage.bunka.go.jp/ja/culturalproperties/result/1628/,未指定,第1番札所梁取・成法寺,,福島県只見町,37.29539310000005,139.47528880000004,18,https://japan-heritage.bunka.go.jp/ja/datas/cache/images/2022/08/15/500x343_2ae395417f98b42be3d881be00011165_cf22fe842021627e3ee27d17423720616d8dfb36.jpeg
766,21,77,https://japan-heritage.bunka.go.jp/ja/culturalproperties/result/1629/,未指定,第2番札所塩ノ岐・八乙女堂,,福島県只見町,37.284615,139.46495260000006,18,https://japan-heritage.bunka.go.jphttps://japan-heritage.bunka.go.jp/ja/files/images/home/noimage.jpg
767,21,78,https://japan-heritage.bunka.go.jp/ja/culturalproperties/result/1630/,未指定,第3番札所小林・新福寺,,福島県只見町,37.307213300000036,139.45263709999995,18,https://japan-heritage.bunka.go.jphttps://japan-heritage.bunka.go.jp/ja/files/images/home/noimage.jpg
768,21,79,https://japan-heritage.bunka.go.jp/ja/culturalproperties/result/1631/,未指定,第4番札所黒谷・瀧泉寺,,福島県只見町,37.300889800000036,139.36914679999995,18,https://japan-heritage.bunka.go.jphttps://japan-heritage.bunka.go.jp/ja/files/images/home/noimage.jpg
769,21,80,https://japan-heritage.bunka.go.jp/ja/culturalproperties/result/1632/,未指定,第5番札所楢戸・楢戸堂,,福島県只見町,37.324690600000004,139.3357694,18,https://japan-heritage.bunka.go.jphttps://japan-heritage.bunka.go.jp/ja/files/images/home/noimage.jpg
770,21,81,https://japan-heritage.bunka.go.jp/ja/culturalproperties/result/1633/,未指定,第6番札所布沢・浮島堂,,福島県只見町,37.342314999999985,139.47851390000005,18,https://japan-heritage.bunka.go.jphttps://japan-heritage.bunka.go.jp/ja/files/images/home/noimage.jpg
771,21,82,https://japan-heritage.bunka.go.jp/ja/culturalproperties/result/1634/,未指定,第7番札所慈眼山観音寺,,福島県昭和村,37.323960699999986,139.6347886000001,18,https://japan-heritage.bunka.go.jphttps://japan-heritage.bunka.go.jp/ja/files/images/home/noimage.jpg
772,21,83,https://japan-heritage.bunka.go.jp/ja/culturalproperties/result/1635/,未指定,第8番札所東尾岐観音堂,,福島県会津美里町,37.356257699999986,139.80142769999998,18,https://japan-heritage.bunka.go.jphttps://japan-heritage.bunka.go.jp/ja/files/images/home/noimage.jpg
773,21,84,https://japan-heritage.bunka.go.jp/ja/culturalproperties/result/1636/,未指定,第9番札所永井野観音堂,,福島県会津美里町,37.45245490000003,139.83367859999998,18,https://japan-heritage.bunka.go.jphttps://japan-heritage.bunka.go.jp/ja/files/images/home/noimage.jpg
774,21,85,https://japan-heritage.bunka.go.jp/ja/culturalproperties/result/1637/,未指定,第10番札所小野観音堂,,福島県下郷町,37.31155259999999,139.89245260000007,18,https://japan-heritage.bunka.go.jp/ja/datas/images/2022/08/15/3d6db873ab3d29fca4b7875d6413a86a9e9fce0f.jpeg
775,21,86,https://japan-heritage.bunka.go.jp/ja/culturalproperties/result/1638/,未指定,第11番札所中ノ沢観音堂,,福島県下郷町,37.259091600000005,139.89400419999993,18,https://japan-heritage.bunka.go.jp/ja/datas/cache/images/2022/08/15/500x343_2ae395417f98b42be3d881be00011165_0765a3fcfa811b899309d09a0a7fbf5490e02aa7.jpeg
776,21,87,https://japan-heritage.bunka.go.jp/ja/culturalproperties/result/1639/,未指定,第12番札所旭田寺（旧・長福寺）,,福島県下郷町,37.248703000000035,139.87299980000012,18,https://japan-heritage.bunka.go.jp/ja/datas/images/2022/08/15/f4a3a3824027e6b2e1c572435ba986510ea94baf.jpeg
777,21,88,https://japan-heritage.bunka.go.jp/ja/culturalproperties/result/1640/,未指定,第13番札所嶽観音堂,,福島県下郷町,37.19250170000003,139.92002960000002,17,https://japan-heritage.bunka.go.jphttps://japan-heritage.bunka.go.jp/ja/files/images/home/noimage.jpg
778,21,89,https://japan-heritage.bunka.go.jp/ja/culturalproperties/result/1641/,未指定,第14番札所田島金光山薬師寺,,福島県南会津町,37.20206140000003,139.77792320000003,18,https://japan-heritage.bunka.go.jphttps://japan-heritage.bunka.go.jp/ja/files/images/home/noimage.jpg
779,21,90,https://japan-heritage.bunka.go.jp/ja/culturalproperties/result/1642/,未指定,第15番札所田島興国山徳昌寺,,福島県南会津町,37.195918099999986,139.77907400000004,18,https://japan-heritage.bunka.go.jp/ja/datas/images/2022/08/15/62c07cabbedd731872b9ff0fb1f88705c3bcea28.jpeg
780,21,91,https://japan-heritage.bunka.go.jp/ja/culturalproperties/result/1643/,未指定,第16番札所田島養命山慈恩寺,,福島県南会津町,37.20018940000003,139.77611509999997,18,https://japan-heritage.bunka.go.jphttps://japan-heritage.bunka.go.jp/ja/files/images/home/noimage.jpg
781,21,92,https://japan-heritage.bunka.go.jp/ja/culturalproperties/result/1644/,未指定,第17番札所高野薬師寺観音堂,,福島県南会津町,37.212400000000024,139.75798129999998,18,https://japan-heritage.bunka.go.jphttps://japan-heritage.bunka.go.jp/ja/files/images/home/noimage.jpg
782,21,93,https://japan-heritage.bunka.go.jp/ja/culturalproperties/result/1645/,未指定,第18番札所帯沢常楽院観音堂,,福島県南会津町,37.20369490000001,139.72025329999997,18,https://japan-heritage.bunka.go.jphttps://japan-heritage.bunka.go.jp/ja/files/images/home/noimage.jpg
783,21,94,https://japan-heritage.bunka.go.jp/ja/culturalproperties/result/1646/,未指定,第19番札所大豆渡南泉寺観音堂,,福島県南会津町,37.1947409,139.6925354,18,https://japan-heritage.bunka.go.jphttps://japan-heritage.bunka.go.jp/ja/files/images/home/noimage.jpg
784,21,95,https://japan-heritage.bunka.go.jp/ja/culturalproperties/result/1647/,未指定,第20番札所川島岩戸堂,,福島県南会津町,37.169007499999985,139.73423300000002,18,https://japan-heritage.bunka.go.jphttps://japan-heritage.bunka.go.jp/ja/files/images/home/noimage.jpg
785,21,96,https://japan-heritage.bunka.go.jp/ja/culturalproperties/result/1648/,未指定,第21番札所糸沢熊野山龍福寺,,福島県南会津町,37.131597000000035,139.7175658,18,https://japan-heritage.bunka.go.jphttps://japan-heritage.bunka.go.jp/ja/files/images/home/noimage.jpg
786,21,97,https://japan-heritage.bunka.go.jp/ja/culturalproperties/result/1649/,未指定,第22番札所塩ノ原泉光寺,,福島県南会津町,37.11493490000003,139.519726,18,https://japan-heritage.bunka.go.jphttps://japan-heritage.bunka.go.jp/ja/files/images/home/noimage.jpg
787,21,98,https://japan-heritage.bunka.go.jp/ja/culturalproperties/result/1650/,未指定,第23番札所小塩観音堂,,福島県南会津町,37.178449600000015,139.51925929999993,18,https://japan-heritage.bunka.go.jp/ja/datas/images/2022/08/15/5db4ad9c405647eaad4f2a0b41150a8f797f5418.jpeg
788,21,99,https://japan-heritage.bunka.go.jp/ja/culturalproperties/result/1651/,未指定,第24番札所古町善導寺栄燿堂,,福島県南会津町,37.17736609999999,139.52993190000007,18,https://japan-heritage.bunka.go.jp/ja/datas/images/2022/08/15/62c07cabbedd731872b9ff0fb1f88705c3bcea28.jpeg
789,21,100,https://japan-heritage.bunka.go.jp/ja/culturalproperties/result/1652/,未指定,第25番札所古町金光山照国寺,,福島県南会津町,37.1839486,139.52856350000002,18,https://japan-heritage.bunka.go.jphttps://japan-heritage.bunka.go.jp/ja/files/images/home/noimage.jpg
790,21,101,https://japan-heritage.bunka.go.jp/ja/culturalproperties/result/1653/,未指定,第26番札所青柳青柳堂,,福島県南会津町,37.19540110000003,139.52713429999994,18,https://japan-heritage.bunka.go.jphttps://japan-heritage.bunka.go.jp/ja/files/images/home/noimage.jpg
791,21,102,https://japan-heritage.bunka.go.jp/ja/culturalproperties/result/1654/,未指定,第27番札所大橋清水堂,,福島県南会津町,37.21867559999996,139.53248259999998,18,https://japan-heritage.bunka.go.jphttps://japan-heritage.bunka.go.jp/ja/files/images/home/noimage.jpg
792,21,103,https://japan-heritage.bunka.go.jp/ja/culturalproperties/result/1655/,未指定,第28番札所山口山崎堂,,福島県南会津町,37.224295100000035,139.54184350000003,18,https://japan-heritage.bunka.go.jphttps://japan-heritage.bunka.go.jp/ja/files/images/home/noimage.jpg
793,21,104,https://japan-heritage.bunka.go.jp/ja/culturalproperties/result/1656/,未指定,第29番札所鴇巣松誉堂,,福島県南会津町,37.2426797,139.54030390000003,18,https://japan-heritage.bunka.go.jphttps://japan-heritage.bunka.go.jp/ja/files/images/home/noimage.jpg
794,21,105,https://japan-heritage.bunka.go.jp/ja/culturalproperties/result/1657/,未指定,第30番札所小野島岩戸堂,,福島県南会津町,37.26792690000002,139.53051389999996,18,https://japan-heritage.bunka.go.jphttps://japan-heritage.bunka.go.jp/ja/files/images/home/noimage.jpg
795,21,106,https://japan-heritage.bunka.go.jp/ja/culturalproperties/result/1658/,未指定,第31番札所富山富山堂,,福島県南会津町,37.2771049,139.52405780000004,18,https://japan-heritage.bunka.go.jp/ja/datas/images/2022/08/15/0df2b9e9eca14df13d7770491bc2d90664f9d35e.jpeg
796,21,107,https://japan-heritage.bunka.go.jp/ja/culturalproperties/result/1659/,未指定,第32番札所下山南照山観音寺,,福島県南会津町,37.28225470000004,139.51623919999997,18,https://japan-heritage.bunka.go.jphttps://japan-heritage.bunka.go.jp/ja/files/images/home/noimage.jpg
797,21,108,https://japan-heritage.bunka.go.jp/ja/culturalproperties/result/1660/,未指定,第33番札所和泉田泉光堂,,福島県南会津町,37.2792658,139.49887050000007,18,https://japan-heritage.bunka.go.jphttps://japan-heritage.bunka.go.jp/ja/files/images/home/noimage.jpg
798,21,109,https://japan-heritage.bunka.go.jp/ja/culturalproperties/result/1661/,国重文（建造物）,成法寺観音堂,じょうほうじかんのんどう,福島県只見町,37.29539310000002,139.47528880000004,18,https://japan-heritage.bunka.go.jphttps://japan-heritage.bunka.go.jp/ja/files/images/home/noimage.jpg
799,21,110,https://japan-heritage.bunka.go.jp/ja/culturalproperties/result/1662/,県重文（彫刻）,成法寺・木造聖観音菩薩坐像,,福島県只見町,37.29539310000002,139.47528880000004,18,https://japan-heritage.bunka.go.jp/ja/datas/cache/images/2022/08/15/500x343_2ae395417f98b42be3d881be00011165_b44ce93386508dc1d2c5b13cf7df95cfc2ba4f8d.jpeg
800,21,111,https://japan-heritage.bunka.go.jp/ja/culturalproperties/result/1663/,国重文（建造物）,旭田寺中ノ沢観音・観音堂,きょくでんじなかのさわかんのん・かんのんどう,福島県下郷町,37.259091600000005,139.89400420000004,18,https://japan-heritage.bunka.go.jp/ja/datas/images/2022/08/15/dbb9f9b3c9262f3df798b56d08d26a2ace4948fe.jpeg
801,21,112,https://japan-heritage.bunka.go.jp/ja/culturalproperties/result/1664/,県重文（建造物）,南泉寺鐘楼門,,福島県南会津町,37.20144360000002,139.70445829999994,18,https://japan-heritage.bunka.go.jp/ja/datas/cache/images/2022/08/15/500x343_2ae395417f98b42be3d881be00011165_305496d94da72488cbf7338a588f0a28a7e940a2.jpeg
802,21,113,https://japan-heritage.bunka.go.jp/ja/culturalproperties/result/1665/,県重文（彫刻）,善導寺・木造阿弥陀如来坐像,,福島県南会津町,37.17736609999999,139.52993190000007,18,https://japan-heritage.bunka.go.jp/ja/datas/cache/images/2022/08/15/500x343_2ae395417f98b42be3d881be00011165_d4c616efaba1289bee201d47706995019e5db396.jpeg
803,21,114,https://japan-heritage.bunka.go.jp/ja/culturalproperties/result/1666/,未指定,猪苗代三十三観音,,福島県猪苗代町,,,,
804,21,115,https://japan-heritage.bunka.go.jp/ja/culturalproperties/result/1667/,未指定,第1番札所観音寺,,福島県猪苗代町,37.53910789999997,140.14726740000003,18,https://japan-heritage.bunka.go.jphttps://japan-heritage.bunka.go.jp/ja/files/images/home/noimage.jpg
805,21,116,https://japan-heritage.bunka.go.jp/ja/culturalproperties/result/1668/,未指定,第2番札所安穏時,,福島県猪苗代町,37.560666999999995,140.1083046,18,https://japan-heritage.bunka.go.jp/ja/datas/images/2022/08/15/9cb9d9c641a322a55f8e7a96a9b28ee17328bf5d.jpeg
806,21,117,https://japan-heritage.bunka.go.jp/ja/culturalproperties/result/1669/,未指定,第3番札所西勝寺,,福島県猪苗代町,37.5657009,140.10875980000003,18,https://japan-heritage.bunka.go.jp/ja/datas/images/2022/08/15/fb6e2524e3268252110fcb9eee6d45bebedc9c8a.jpeg
807,21,118,https://japan-heritage.bunka.go.jp/ja/culturalproperties/result/1670/,未指定,第4番札所沼ノ倉阿弥陀堂,,福島県猪苗代町,37.57761840000001,140.12325529999998,18,https://japan-heritage.bunka.go.jp/ja/datas/images/2022/08/15/3d5cad96409f746e1ca9a5a734720c7f2ceb821f.jpeg
808,21,119,https://japan-heritage.bunka.go.jp/ja/culturalproperties/result/1671/,未指定,第5番札所今泉観音堂,,福島県猪苗代町,37.56274749999999,140.12131599999998,18,https://japan-heritage.bunka.go.jphttps://japan-heritage.bunka.go.jp/ja/files/images/home/noimage.jpg
809,21,120,https://japan-heritage.bunka.go.jp/ja/culturalproperties/result/1672/,未指定,第6番札所伯父ヶ倉太子堂,,福島県猪苗代町,37.58266370000003,140.1274274,18,https://japan-heritage.bunka.go.jphttps://japan-heritage.bunka.go.jp/ja/files/images/home/noimage.jpg
810,21,121,https://japan-heritage.bunka.go.jp/ja/culturalproperties/result/1673/,未指定,第7番札所天徳寺,,福島県猪苗代町,37.6038078,140.1370855,18,https://japan-heritage.bunka.go.jp/ja/datas/images/2022/08/15/71b15592584d3e2578622c8277d614c1e65b945c.jpeg
811,21,122,https://japan-heritage.bunka.go.jp/ja/culturalproperties/result/1674/,未指定,第8番札所荻窪地蔵堂,,福島県猪苗代町,37.576783000000034,140.13738239999998,18,https://japan-heritage.bunka.go.jphttps://japan-heritage.bunka.go.jp/ja/files/images/home/noimage.jpg
812,21,123,https://japan-heritage.bunka.go.jp/ja/culturalproperties/result/1675/,未指定,第9番札所内野観音堂,,福島県猪苗代町,37.558006000000006,140.1360333,18,https://japan-heritage.bunka.go.jphttps://japan-heritage.bunka.go.jp/ja/files/images/home/noimage.jpg
813,21,124,https://japan-heritage.bunka.go.jp/ja/culturalproperties/result/1676/,未指定,第10番札所隣松院観音堂,,福島県猪苗代町,37.5648958,140.1349431,18,https://japan-heritage.bunka.go.jp/ja/datas/images/2022/08/15/efcc45172a9e6f4123ae4b9b04e931896b69e5e1.jpeg
814,21,125,https://japan-heritage.bunka.go.jp/ja/culturalproperties/result/1677/,未指定,第11番札所関脇優婆夷堂,,福島県猪苗代町,37.50795990000001,140.14672990000008,18,https://japan-heritage.bunka.go.jphttps://japan-heritage.bunka.go.jp/ja/files/images/home/noimage.jpg
815,21,126,https://japan-heritage.bunka.go.jp/ja/culturalproperties/result/1678/,未指定,第12番札所山潟,,福島県猪苗代町,37.48237609999999,140.16722200000004,18,https://japan-heritage.bunka.go.jp/ja/datas/images/2022/08/15/7d316e3df7d557dc7d3a0bdffb07dfb388b85e0d.jpeg
816,21,127,https://japan-heritage.bunka.go.jp/ja/culturalproperties/result/1679/,未指定,第13番札所宝性寺,,福島県猪苗代町,37.51664639999999,140.13288390000002,18,https://japan-heritage.bunka.go.jphttps://japan-heritage.bunka.go.jp/ja/files/images/home/noimage.jpg
817,21,128,https://japan-heritage.bunka.go.jp/ja/culturalproperties/result/1680/,未指定,第14番札所小平潟観音堂,,福島県猪苗代町,37.52074840000003,140.12271609999993,18,https://japan-heritage.bunka.go.jp/ja/datas/images/2022/08/15/f4a3a3824027e6b2e1c572435ba986510ea94baf.jpeg
818,21,129,https://japan-heritage.bunka.go.jp/ja/culturalproperties/result/1681/,未指定,第15番札所中ノ目愛宕神社,,福島県猪苗代町,37.53236499999999,140.1228529,18,https://japan-heritage.bunka.go.jphttps://japan-heritage.bunka.go.jp/ja/files/images/home/noimage.jpg
819,21,130,https://japan-heritage.bunka.go.jp/ja/culturalproperties/result/1682/,未指定,第16番札所入江比丘尼堂,,福島県猪苗代町,37.53461110000002,140.1112872,18,https://japan-heritage.bunka.go.jp/ja/datas/images/2022/08/15/461017317458a71c39495bdeb97bdd3417f4c967.jpeg
820,21,131,https://japan-heritage.bunka.go.jp/ja/culturalproperties/result/1683/,未指定,第17番札所蜂屋敷観音堂,,福島県猪苗代町,37.536997500000005,140.10187540000015,18,https://japan-heritage.bunka.go.jp/ja/datas/images/2022/08/15/f8d5a3b4c56e8c2b740d4dbc589bb209d4421c90.jpeg
821,21,132,https://japan-heritage.bunka.go.jp/ja/culturalproperties/result/1684/,未指定,第18番札所相名目地蔵堂,,福島県猪苗代町,37.53496200000001,140.1053005,18,https://japan-heritage.bunka.go.jp/ja/datas/images/2022/08/15/cf22fe842021627e3ee27d17423720616d8dfb36.jpeg
822,21,133,https://japan-heritage.bunka.go.jp/ja/culturalproperties/result/1685/,未指定,第19番札所嘉堂観安養寺,,福島県猪苗代町,37.54852790000001,140.10898539999994,18,https://japan-heritage.bunka.go.jphttps://japan-heritage.bunka.go.jp/ja/files/images/home/noimage.jpg
823,21,134,https://japan-heritage.bunka.go.jp/ja/culturalproperties/result/1686/,未指定,第20番札所百目貫地蔵堂,,福島県猪苗代町,37.55049559999996,140.09973760000003,18,https://japan-heritage.bunka.go.jphttps://japan-heritage.bunka.go.jp/ja/files/images/home/noimage.jpg
824,21,135,https://japan-heritage.bunka.go.jp/ja/culturalproperties/result/1687/,未指定,第21番札所島田地蔵堂,,福島県猪苗代町,37.54971299999999,140.09099360000005,18,https://japan-heritage.bunka.go.jphttps://japan-heritage.bunka.go.jp/ja/files/images/home/noimage.jpg
825,21,136,https://japan-heritage.bunka.go.jp/ja/culturalproperties/result/1688/,未指定,第22番札所釜井,,福島県猪苗代町,37.54375220000006,140.08985099999995,18,https://japan-heritage.bunka.go.jphttps://japan-heritage.bunka.go.jp/ja/files/images/home/noimage.jpg
826,21,137,https://japan-heritage.bunka.go.jp/ja/culturalproperties/result/1689/,未指定,第23番札所烏帽子,,福島県猪苗代町,37.537895000000006,140.09277459999998,18,https://japan-heritage.bunka.go.jphttps://japan-heritage.bunka.go.jp/ja/files/images/home/noimage.jpg
827,21,138,https://japan-heritage.bunka.go.jp/ja/culturalproperties/result/1690/,未指定,第24番札所東真行,,福島県猪苗代町,37.54013880000003,140.0856963,18,https://japan-heritage.bunka.go.jphttps://japan-heritage.bunka.go.jp/ja/files/images/home/noimage.jpg
828,21,139,https://japan-heritage.bunka.go.jp/ja/culturalproperties/result/1691/,未指定,第25番札所大在家観音堂,,福島県猪苗代町,37.546014899999996,140.08283970000002,18,https://japan-heritage.bunka.go.jp/ja/datas/images/2022/08/15/7016be9d71cb43a7f7061f05ee052518f6bffbf1.jpeg
829,21,140,https://japan-heritage.bunka.go.jp/ja/culturalproperties/result/1692/,未指定,第26番札所西真行観音堂,,福島県猪苗代町,37.5437415,140.0820377,18,https://japan-heritage.bunka.go.jphttps://japan-heritage.bunka.go.jp/ja/files/images/home/noimage.jpg
830,21,141,https://japan-heritage.bunka.go.jp/ja/culturalproperties/result/1693/,未指定,第27番札所新在家観音堂,,福島県猪苗代町,37.54322260000001,140.07638900000006,18,https://japan-heritage.bunka.go.jphttps://japan-heritage.bunka.go.jp/ja/files/images/home/noimage.jpg
831,21,142,https://japan-heritage.bunka.go.jp/ja/culturalproperties/result/1694/,未指定,第28番札所五十軒観音堂,,福島県猪苗代町,37.553855399999996,140.06323280000004,18,https://japan-heritage.bunka.go.jphttps://japan-heritage.bunka.go.jp/ja/files/images/home/noimage.jpg
832,21,143,https://japan-heritage.bunka.go.jp/ja/culturalproperties/result/1695/,未指定,第29番札所行津大悲堂,,福島県猪苗代町,37.54328850000002,140.066151,18,https://japan-heritage.bunka.go.jp/ja/datas/images/2022/08/15/cd597f866adc13b6d6c4c789ff6ca5acdb324fd2.jpeg
833,21,144,https://japan-heritage.bunka.go.jp/ja/culturalproperties/result/1696/,未指定,第30番札所戸ノ口観音堂,,福島県猪苗代町,37.5220653,140.03016379999997,18,https://japan-heritage.bunka.go.jphttps://japan-heritage.bunka.go.jp/ja/files/images/home/noimage.jpg
834,21,145,https://japan-heritage.bunka.go.jp/ja/culturalproperties/result/1697/,未指定,第31番札所蟹沢観音堂,,福島県猪苗代町,37.53038679999999,140.05451019999998,18,https://japan-heritage.bunka.go.jphttps://japan-heritage.bunka.go.jp/ja/files/images/home/noimage.jpg
835,21,146,https://japan-heritage.bunka.go.jp/ja/culturalproperties/result/1698/,未指定,第32番札所西窪地蔵大菩薩堂,,福島県猪苗代町,37.537495199999995,140.0614786,18,https://japan-heritage.bunka.go.jp/ja/datas/images/2022/08/15/4abfa4468c22a42c1df92f7f71d9c17e25464f3a.jpeg
836,21,147,https://japan-heritage.bunka.go.jp/ja/culturalproperties/result/1699/,未指定,第33番札所長照寺,,福島県猪苗代町,37.53754200000001,140.0727908,18,https://japan-heritage.bunka.go.jphttps://japan-heritage.bunka.go.jp/ja/files/images/home/noimage.jpg
837,21,148,https://japan-heritage.bunka.go.jp/ja/culturalproperties/result/1700/,未指定,番外1番札所長坂観音堂,,福島県猪苗代町,37.6106289,140.1194666,18,https://japan-heritage.bunka.go.jp/ja/datas/images/2022/08/15/305496d94da72488cbf7338a588f0a28a7e940a2.jpeg
838,21,149,https://japan-heritage.bunka.go.jp/ja/culturalproperties/result/1701/,未指定,番外2番札所大原観音堂,,福島県猪苗代町,37.62088769999998,140.1932663,18,https://japan-heritage.bunka.go.jphttps://japan-heritage.bunka.go.jp/ja/files/images/home/noimage.jpg
839,21,150,https://japan-heritage.bunka.go.jp/ja/culturalproperties/result/1702/,未指定,番外3番札所志津文珠堂,,福島県猪苗代町,37.57192980000001,140.13938870000004,18,https://japan-heritage.bunka.go.jphttps://japan-heritage.bunka.go.jp/ja/files/images/home/noimage.jpg
840,21,151,https://japan-heritage.bunka.go.jp/ja/culturalproperties/result/1703/,未指定,番外4番札所恵日寺,,福島県猪苗代町,37.567387000000004,139.98685999999998,18,https://japan-heritage.bunka.go.jphttps://japan-heritage.bunka.go.jp/ja/files/images/home/noimage.jpg
841,21,152,https://japan-heritage.bunka.go.jp/ja/culturalproperties/result/1704/,未指定,番外5番札所能満寺観音堂,,福島県猪苗代町,37.55777850000001,139.9837321,18,https://japan-heritage.bunka.go.jphttps://japan-heritage.bunka.go.jp/ja/files/images/home/noimage.jpg
842,21,153,https://japan-heritage.bunka.go.jp/ja/culturalproperties/result/1705/,未指定,番外6番札所三丈潟観音堂,,福島県猪苗代町,37.53622760000003,140.07234689999996,18,https://japan-heritage.bunka.go.jphttps://japan-heritage.bunka.go.jp/ja/files/images/home/noimage.jpg
843,21,154,https://japan-heritage.bunka.go.jp/ja/culturalproperties/result/1706/,未指定,番外7番札所樋ノ口観音堂,,福島県猪苗代町,37.59967170000001,140.13859209999998,18,https://japan-heritage.bunka.go.jphttps://japan-heritage.bunka.go.jp/ja/files/images/home/noimage.jpg
844,21,155,https://japan-heritage.bunka.go.jp/ja/culturalproperties/result/1707/,未指定,番外8番札所西舘観音堂,,福島県猪苗代町,37.544921800000004,140.12836219999997,18,https://japan-heritage.bunka.go.jphttps://japan-heritage.bunka.go.jp/ja/files/images/home/noimage.jpg
845,21,156,https://japan-heritage.bunka.go.jp/ja/culturalproperties/result/1708/,県重文（建造物）,観音寺宝篋印塔,,福島県猪苗代町,37.53910789999997,140.14726740000003,18,https://japan-heritage.bunka.go.jp/ja/datas/cache/images/2022/08/15/500x343_2ae395417f98b42be3d881be00011165_754453242ba21d9dca50cb686cfca664d6bac9b6.jpeg
846,21,157,https://japan-heritage.bunka.go.jp/ja/culturalproperties/result/1709/,国重美（彫刻）,安隠寺・銅造阿弥陀如来立像,あんのんじ・どうぞうあみだにょらいりゅうぞう,福島県猪苗代町,37.560666999999995,140.1083046,18,https://japan-heritage.bunka.go.jp/ja/datas/cache/images/2022/08/15/500x343_2ae395417f98b42be3d881be00011165_23b2215e89bb73ccaab206ce2a7e7963034cb9a1.jpeg
847,21,158,https://japan-heritage.bunka.go.jp/ja/culturalproperties/result/1710/,町指定（彫刻）,久保田三十三観音,,福島県柳津町,37.45652170000003,139.7232977,18,https://japan-heritage.bunka.go.jp/ja/datas/cache/images/2022/08/15/500x343_2ae395417f98b42be3d881be00011165_56ed03fbae66a49d15ece7b177821be666359186.jpeg
848,21,159,https://japan-heritage.bunka.go.jp/ja/culturalproperties/result/1711/,未指定,町廻り三十三観音,,福島県会津若松市,,,,
849,21,160,https://japan-heritage.bunka.go.jp/ja/culturalproperties/result/1712/,未指定,永田西国三十三観音,,福島県南会津町,37.1908586,139.7492588,18,https://japan-heritage.bunka.go.jp/ja/datas/cache/images/2022/08/15/500x343_2ae395417f98b42be3d881be00011165_4334ca42b10cc077eaa9ae43da6d0d91ba31f238.jpeg
850,21,161,https://japan-heritage.bunka.go.jp/ja/culturalproperties/result/1713/,未指定,西隆寺乙女三十三観音,,福島県三島町,37.49269679999999,139.65917939999997,18,https://japan-heritage.bunka.go.jp/ja/datas/cache/images/2022/08/15/500x343_2ae395417f98b42be3d881be00011165_7016be9d71cb43a7f7061f05ee052518f6bffbf1.jpeg
851,21,162,https://japan-heritage.bunka.go.jp/ja/culturalproperties/result/1714/,国史跡,下野街道,しもつけかいどう,福島県下郷町,,,,
852,21,163,https://japan-heritage.bunka.go.jp/ja/culturalproperties/result/1715/,国重要伝統的建造物群保存地区,下郷町大内宿,しもごうまちおおうちじゅく,福島県下郷町,37.33374440000003,139.8609275,18,https://japan-heritage.bunka.go.jp/ja/datas/cache/images/2022/08/15/500x343_2ae395417f98b42be3d881be00011165_f8d5a3b4c56e8c2b740d4dbc589bb209d4421c90.jpeg
853,21,164,https://japan-heritage.bunka.go.jp/ja/culturalproperties/result/1716/,国重文（建造物）,旧正宗寺三匝堂,きゅうしょうそうじさんそうどう,福島県会津若松市,37.50453189999999,139.95396970000002,18,https://japan-heritage.bunka.go.jp/ja/datas/cache/images/2022/08/15/500x343_2ae395417f98b42be3d881be00011165_efcc45172a9e6f4123ae4b9b04e931896b69e5e1.jpeg
