[
  {
    "pidx": "1108",
    "jhno": "27",
    "pno": "1",
    "url": "https://japan-heritage.bunka.go.jp/ja/culturalproperties/result/1971/",
    "status": "未指定（天然記念物）",
    "name": "那谷・菩提・滝ヶ原 碧玉産地",
    "yomi": "",
    "spot": "石川県小松市",
    "lat": "36.297896670932424",
    "lng": "136.4237204391479",
    "zoom": "18",
    "image": "https://japan-heritage.bunka.go.jp/ja/datas/cache/images/2022/08/15/500x343_2ae395417f98b42be3d881be00011165_317b89167544ac4cf31c2aa904e62ae24509788c.jpeg"
  },
  {
    "pidx": "1109",
    "jhno": "27",
    "pno": "2",
    "url": "https://japan-heritage.bunka.go.jp/ja/culturalproperties/result/1972/",
    "status": "国重文（考古資料）",
    "name": "八日市地方遺跡出土品",
    "yomi": "ようかいちじかたいせきしゅつどひん",
    "spot": "石川県小松市",
    "lat": "36.3816826",
    "lng": "136.53734410000004",
    "zoom": "18",
    "image": "https://japan-heritage.bunka.go.jp/ja/datas/cache/images/2022/08/15/500x343_2ae395417f98b42be3d881be00011165_e2f5758b9465bdebe881e5169b20e64babc4a29e.jpeg"
  },
  {
    "pidx": "1110",
    "jhno": "27",
    "pno": "3",
    "url": "https://japan-heritage.bunka.go.jp/ja/culturalproperties/result/1973/",
    "status": "未指定（史跡）",
    "name": "八日市地方遺跡",
    "yomi": "",
    "spot": "石川県小松市",
    "lat": "36.40182400000001",
    "lng": "136.45466799999986",
    "zoom": "18",
    "image": "https://japan-heritage.bunka.go.jp/ja/datas/cache/images/2022/08/15/500x343_2ae395417f98b42be3d881be00011165_6ff39a8d9bb9cb5acf8449cd207b53102d5761c6.jpeg"
  },
  {
    "pidx": "1111",
    "jhno": "27",
    "pno": "4",
    "url": "https://japan-heritage.bunka.go.jp/ja/culturalproperties/result/1974/",
    "status": "未指定（考古資料）",
    "name": "片山津玉造遺跡出土品",
    "yomi": "",
    "spot": "石川県小松市",
    "lat": "36.40890710000003",
    "lng": "136.44831520000002",
    "zoom": "18",
    "image": "https://japan-heritage.bunka.go.jp/ja/datas/cache/images/2022/08/15/500x343_2ae395417f98b42be3d881be00011165_c90c4a9cf2df90da978cf73005fc62baeb53b7d1.jpeg"
  },
  {
    "pidx": "1112",
    "jhno": "27",
    "pno": "5",
    "url": "https://japan-heritage.bunka.go.jp/ja/culturalproperties/result/1975/",
    "status": "未指定（史跡公園）",
    "name": "河田山古墳群の石室",
    "yomi": "",
    "spot": "石川県小松市",
    "lat": "36.411969599999985",
    "lng": "136.5169121",
    "zoom": "19",
    "image": "https://japan-heritage.bunka.go.jp/ja/datas/cache/images/2022/08/15/500x343_2ae395417f98b42be3d881be00011165_81dfc927a72359a891ca494cd936916fb2046f29.jpeg"
  },
  {
    "pidx": "1113",
    "jhno": "27",
    "pno": "6",
    "url": "https://japan-heritage.bunka.go.jp/ja/culturalproperties/result/1976/",
    "status": "未指定（考古資料）",
    "name": "河田山古墳群出土品",
    "yomi": "",
    "spot": "石川県小松市",
    "lat": "36.411969599999985",
    "lng": "136.5169121",
    "zoom": "19",
    "image": "https://japan-heritage.bunka.go.jp/ja/datas/cache/images/2022/08/15/500x343_2ae395417f98b42be3d881be00011165_d07fff38a19b498eee2d7e5f04fe3bf4549d7ffd.jpeg"
  },
  {
    "pidx": "1114",
    "jhno": "27",
    "pno": "7",
    "url": "https://japan-heritage.bunka.go.jp/ja/culturalproperties/result/1977/",
    "status": "未指定（建造物）",
    "name": "十九堂山遺跡石塔群",
    "yomi": "",
    "spot": "石川県小松市",
    "lat": "36.41113700000002",
    "lng": "136.50344900000005",
    "zoom": "18",
    "image": "https://japan-heritage.bunka.go.jp/ja/datas/cache/images/2022/08/15/500x343_2ae395417f98b42be3d881be00011165_99d3dd1527b698c35977901dee7c8c21e51655da.jpeg"
  },
  {
    "pidx": "1115",
    "jhno": "27",
    "pno": "8",
    "url": "https://japan-heritage.bunka.go.jp/ja/culturalproperties/result/1978/",
    "status": "市指定（建造物）",
    "name": "仏御前墓",
    "yomi": "",
    "spot": "石川県小松市",
    "lat": "36.38446617766898",
    "lng": "136.5296128465576",
    "zoom": "17",
    "image": "https://japan-heritage.bunka.go.jp/ja/datas/cache/images/2022/08/15/500x343_2ae395417f98b42be3d881be00011165_e9a56dfe789963a4c4d70c4948905bc08058d0cd.jpeg"
  },
  {
    "pidx": "1116",
    "jhno": "27",
    "pno": "9",
    "url": "https://japan-heritage.bunka.go.jp/ja/culturalproperties/result/1979/",
    "status": "市指定（建造物）",
    "name": "滝ヶ原石造多層塔",
    "yomi": "",
    "spot": "石川県小松市",
    "lat": "36.30195700000001",
    "lng": "136.41888199999994",
    "zoom": "18",
    "image": "https://japan-heritage.bunka.go.jp/ja/datas/cache/images/2022/08/15/500x343_2ae395417f98b42be3d881be00011165_14a4918b1081442fc2e1a76c3c2d3abf13a5def5.jpeg"
  },
  {
    "pidx": "1117",
    "jhno": "27",
    "pno": "10",
    "url": "https://japan-heritage.bunka.go.jp/ja/culturalproperties/result/1980/",
    "status": "未指定（史跡）",
    "name": "滝ヶ原下村八幡神社遺跡",
    "yomi": "",
    "spot": "石川県小松市",
    "lat": "36.30195700000001",
    "lng": "136.41888199999994",
    "zoom": "18",
    "image": "https://japan-heritage.bunka.go.jp/ja/datas/cache/images/2022/08/15/500x343_2ae395417f98b42be3d881be00011165_bafba980e16a7c6804c3ff6667bbef1143184ae1.jpeg"
  },
  {
    "pidx": "1118",
    "jhno": "27",
    "pno": "11",
    "url": "https://japan-heritage.bunka.go.jp/ja/culturalproperties/result/1981/",
    "status": "未指定（史跡）",
    "name": "観音下白山神社境内遺跡",
    "yomi": "",
    "spot": "石川県小松市",
    "lat": "36.331813300000015",
    "lng": "136.52920749999998",
    "zoom": "18",
    "image": "https://japan-heritage.bunka.go.jp/ja/datas/cache/images/2022/08/15/500x343_2ae395417f98b42be3d881be00011165_6be31a5f16c3a7354d4b346d187481c3995d4f9c.jpeg"
  },
  {
    "pidx": "1119",
    "jhno": "27",
    "pno": "12",
    "url": "https://japan-heritage.bunka.go.jp/ja/culturalproperties/result/1982/",
    "status": "市指定（建造物）",
    "name": "小松城本丸櫓台石垣",
    "yomi": "",
    "spot": "石川県小松市",
    "lat": "36.412516",
    "lng": "136.44343400000002",
    "zoom": "18",
    "image": "https://japan-heritage.bunka.go.jp/ja/datas/cache/images/2022/08/15/500x343_2ae395417f98b42be3d881be00011165_5ee3150f226e26e61f8968db28ae40fe45dbbfc0.jpeg"
  },
  {
    "pidx": "1120",
    "jhno": "27",
    "pno": "13",
    "url": "https://japan-heritage.bunka.go.jp/ja/culturalproperties/result/1983/",
    "status": "未指定（建造物）",
    "name": "小松城本丸西側石垣",
    "yomi": "",
    "spot": "石川県小松市",
    "lat": "36.412516",
    "lng": "136.44343400000002",
    "zoom": "18",
    "image": "https://japan-heritage.bunka.go.jp/ja/datas/cache/images/2022/08/15/500x343_2ae395417f98b42be3d881be00011165_e68b638eca259fb0e1ad4e6d7d83f0ba695ac7c8.jpeg"
  },
  {
    "pidx": "1121",
    "jhno": "27",
    "pno": "14",
    "url": "https://japan-heritage.bunka.go.jp/ja/culturalproperties/result/1984/",
    "status": "未指定（産業遺産）",
    "name": "鵜川石切り場",
    "yomi": "",
    "spot": "石川県小松市",
    "lat": "36.40398124207188",
    "lng": "136.52414840209963",
    "zoom": "16",
    "image": "https://japan-heritage.bunka.go.jp/ja/datas/cache/images/2022/08/15/500x343_2ae395417f98b42be3d881be00011165_9cbc0a87137cb74c30eb93b60ac2f1eed08db155.jpeg"
  },
  {
    "pidx": "1122",
    "jhno": "27",
    "pno": "15",
    "url": "https://japan-heritage.bunka.go.jp/ja/culturalproperties/result/1985/",
    "status": "未指定（産業遺産）",
    "name": "遊泉寺石切り場",
    "yomi": "",
    "spot": "石川県小松市",
    "lat": "36.398726140480015",
    "lng": "136.52947476190184",
    "zoom": "16",
    "image": "https://japan-heritage.bunka.go.jp/ja/datas/cache/images/2022/08/15/500x343_2ae395417f98b42be3d881be00011165_8d7a544781ed94b30aa0f0c8cda0585324ff2a22.jpeg"
  },
  {
    "pidx": "1123",
    "jhno": "27",
    "pno": "16",
    "url": "https://japan-heritage.bunka.go.jp/ja/culturalproperties/result/1986/",
    "status": "未指定（産業遺産）",
    "name": "滝ヶ原石切り場",
    "yomi": "",
    "spot": "石川県小松市",
    "lat": "36.290523000000015",
    "lng": "136.42849",
    "zoom": "18",
    "image": "https://japan-heritage.bunka.go.jp/ja/datas/cache/images/2022/08/15/500x343_2ae395417f98b42be3d881be00011165_9232e13eeaec226678b889ab85a2ed5dad34b4b5.jpeg"
  },
  {
    "pidx": "1124",
    "jhno": "27",
    "pno": "17",
    "url": "https://japan-heritage.bunka.go.jp/ja/culturalproperties/result/1987/",
    "status": "未指定（産業遺産）",
    "name": "観音下石切り場",
    "yomi": "",
    "spot": "石川県小松市",
    "lat": "36.33149300000003",
    "lng": "136.53115400000002",
    "zoom": "18",
    "image": "https://japan-heritage.bunka.go.jp/ja/datas/cache/images/2022/08/15/500x343_2ae395417f98b42be3d881be00011165_82cd730cd49f0b75cc4a3185cb0f7457aba3937c.jpeg"
  },
  {
    "pidx": "1125",
    "jhno": "27",
    "pno": "18",
    "url": "https://japan-heritage.bunka.go.jp/ja/culturalproperties/result/1988/",
    "status": "未指定（民俗資料）",
    "name": "石工道具",
    "yomi": "",
    "spot": "石川県小松市",
    "lat": "36.29787539999997",
    "lng": "136.42442359999995",
    "zoom": "19",
    "image": "https://japan-heritage.bunka.go.jp/ja/datas/cache/images/2022/08/15/500x343_2ae395417f98b42be3d881be00011165_29f9edde1ca60ad1cc5b76e22448ab5b37679399.jpeg"
  },
  {
    "pidx": "1126",
    "jhno": "27",
    "pno": "19",
    "url": "https://japan-heritage.bunka.go.jp/ja/culturalproperties/result/1989/",
    "status": "市指定（建造物）",
    "name": "滝ヶ原アーチ石橋群",
    "yomi": "",
    "spot": "石川県小松市",
    "lat": "36.29255889107658",
    "lng": "136.42388525131219",
    "zoom": "16",
    "image": "https://japan-heritage.bunka.go.jp/ja/datas/cache/images/2022/08/15/500x343_2ae395417f98b42be3d881be00011165_401289e77e52e59cd2ede0553122e6a917379802.jpeg"
  },
  {
    "pidx": "1127",
    "jhno": "27",
    "pno": "20",
    "url": "https://japan-heritage.bunka.go.jp/ja/culturalproperties/result/1990/",
    "status": "国登録（建造物）",
    "name": "東酒造",
    "yomi": "ひがししゅぞう",
    "spot": "石川県小松市",
    "lat": "36.431920218769775",
    "lng": "136.4804808895492",
    "zoom": "18",
    "image": "https://japan-heritage.bunka.go.jp/ja/datas/cache/images/2022/08/15/500x343_2ae395417f98b42be3d881be00011165_ee35efd6d3061643abcea8a06d61af8819a57eda.jpeg"
  },
  {
    "pidx": "1128",
    "jhno": "27",
    "pno": "21",
    "url": "https://japan-heritage.bunka.go.jp/ja/culturalproperties/result/1991/",
    "status": "未指定（産業遺産）",
    "name": "松雲堂",
    "yomi": "",
    "spot": "石川県小松市",
    "lat": "36.40286820000004",
    "lng": "136.44851289999997",
    "zoom": "20",
    "image": "https://japan-heritage.bunka.go.jp/ja/datas/cache/images/2022/08/15/500x343_2ae395417f98b42be3d881be00011165_64ce4679895b810827264573d49de89e0723598b.jpeg"
  },
  {
    "pidx": "1129",
    "jhno": "27",
    "pno": "22",
    "url": "https://japan-heritage.bunka.go.jp/ja/culturalproperties/result/1992/",
    "status": "未指定（産業遺産）",
    "name": "花坂陶石山",
    "yomi": "",
    "spot": "石川県小松市",
    "lat": "36.384678",
    "lng": "136.49999300000002",
    "zoom": "18",
    "image": "https://japan-heritage.bunka.go.jp/ja/datas/cache/images/2022/08/15/500x343_2ae395417f98b42be3d881be00011165_cc2b7bad5fb39591f46d5db4b316d24b0b747549.jpeg"
  },
  {
    "pidx": "1130",
    "jhno": "27",
    "pno": "23",
    "url": "https://japan-heritage.bunka.go.jp/ja/culturalproperties/result/1993/",
    "status": "未指定（産業遺産）",
    "name": "九谷焼製土場（谷口製土場ほか）",
    "yomi": "",
    "spot": "石川県小松市",
    "lat": "36.39288400000003",
    "lng": "136.48344199999997",
    "zoom": "18",
    "image": "https://japan-heritage.bunka.go.jp/ja/datas/cache/images/2022/08/15/500x343_2ae395417f98b42be3d881be00011165_79397f43aacd451b21d9c6c5e18070dc272a1bd6.jpeg"
  },
  {
    "pidx": "1131",
    "jhno": "27",
    "pno": "24",
    "url": "https://japan-heritage.bunka.go.jp/ja/culturalproperties/result/1994/",
    "status": "市指定（建造物）",
    "name": "連房式登窯（登窯展示館）",
    "yomi": "",
    "spot": "石川県小松市",
    "lat": "36.400222000000014",
    "lng": "136.48909600000002",
    "zoom": "18",
    "image": "https://japan-heritage.bunka.go.jp/ja/datas/cache/images/2022/08/15/500x343_2ae395417f98b42be3d881be00011165_52cc1e3ba5af2faa70e797db023049c51a485031.jpeg"
  },
  {
    "pidx": "1132",
    "jhno": "27",
    "pno": "25",
    "url": "https://japan-heritage.bunka.go.jp/ja/culturalproperties/result/1995/",
    "status": "未指定（産業遺産）",
    "name": "錦窯（錦窯展示館）",
    "yomi": "",
    "spot": "石川県小松市",
    "lat": "36.40331100000004",
    "lng": "136.44807600000001",
    "zoom": "20",
    "image": "https://japan-heritage.bunka.go.jp/ja/datas/cache/images/2022/08/15/500x343_2ae395417f98b42be3d881be00011165_c7cddfca06a7f322ee2ca0ea42da5aca9454d12e.jpeg"
  },
  {
    "pidx": "1133",
    "jhno": "27",
    "pno": "26",
    "url": "https://japan-heritage.bunka.go.jp/ja/culturalproperties/result/1996/",
    "status": "未指定（産業遺産）",
    "name": "尾小屋鉱山",
    "yomi": "",
    "spot": "石川県小松市",
    "lat": "36.296901600000005",
    "lng": "136.53710309999997",
    "zoom": "17",
    "image": "https://japan-heritage.bunka.go.jp/ja/datas/cache/images/2022/08/15/500x343_2ae395417f98b42be3d881be00011165_b5a4fd980c665dc5957550cb4f08ba4260fa61fe.jpeg"
  },
  {
    "pidx": "1134",
    "jhno": "27",
    "pno": "27",
    "url": "https://japan-heritage.bunka.go.jp/ja/culturalproperties/result/1997/",
    "status": "未指定（産業遺産）",
    "name": "金平金山",
    "yomi": "",
    "spot": "石川県小松市",
    "lat": "36.35650899999999",
    "lng": "136.503642",
    "zoom": "18",
    "image": "https://japan-heritage.bunka.go.jp/ja/datas/cache/images/2022/08/15/500x343_2ae395417f98b42be3d881be00011165_3bd581c1e348a5b3a49907cfa68571ad22be1f19.jpeg"
  },
  {
    "pidx": "1135",
    "jhno": "27",
    "pno": "28",
    "url": "https://japan-heritage.bunka.go.jp/ja/culturalproperties/result/1998/",
    "status": "未指定（産業遺産）",
    "name": "遊泉寺銅山",
    "yomi": "",
    "spot": "石川県小松市",
    "lat": "36.40188196600401",
    "lng": "136.53648192590333",
    "zoom": "16",
    "image": "https://japan-heritage.bunka.go.jp/ja/datas/cache/images/2022/08/15/500x343_2ae395417f98b42be3d881be00011165_f9eaee53b0ec7ae71192a1272c89564dd29b2f16.jpeg"
  },
  {
    "pidx": "1136",
    "jhno": "27",
    "pno": "29",
    "url": "https://japan-heritage.bunka.go.jp/ja/culturalproperties/result/1999/",
    "status": "国重文（建造物）",
    "name": "那谷寺（本堂ほか５棟）",
    "yomi": "なたでら（ほか5とう）",
    "spot": "石川県小松市",
    "lat": "36.31180275736614",
    "lng": "136.42051588095092",
    "zoom": "18",
    "image": "https://japan-heritage.bunka.go.jp/ja/datas/cache/images/2022/08/15/500x343_2ae395417f98b42be3d881be00011165_9ef2afdbcceeb1fb9c5b3acc959729804b1a0a7d.jpeg"
  },
  {
    "pidx": "1137",
    "jhno": "27",
    "pno": "30",
    "url": "https://japan-heritage.bunka.go.jp/ja/culturalproperties/result/2000/",
    "status": "国名勝",
    "name": "那谷寺庫裏庭園",
    "yomi": "なたでらくりていえん",
    "spot": "石川県小松市",
    "lat": "36.313409",
    "lng": "136.42034869999998",
    "zoom": "19",
    "image": "https://japan-heritage.bunka.go.jp/ja/datas/cache/images/2022/08/15/500x343_2ae395417f98b42be3d881be00011165_aa9ad0ca13e98a2bc7b5369ab0b82cfd9fb5c972.jpeg"
  }
]