[
  {
    "pidx": "1365",
    "jhno": "34",
    "pno": "1",
    "url": "https://japan-heritage.bunka.go.jp/ja/culturalproperties/result/2220/",
    "status": "国指定重要有形民俗文化財",
    "name": "菅谷たたら山内",
    "yomi": "",
    "spot": "島根県雲南市",
    "lat": "35.18508522509782",
    "lng": "132.85142216145027",
    "zoom": "17",
    "image": "https://japan-heritage.bunka.go.jp/ja/datas/cache/images/2022/08/15/500x343_2ae395417f98b42be3d881be00011165_d9ab26ca4a5a9612e4ff401f68e26111fc80c0ca.jpeg"
  },
  {
    "pidx": "1366",
    "jhno": "34",
    "pno": "2",
    "url": "https://japan-heritage.bunka.go.jp/ja/culturalproperties/result/2221/",
    "status": "未指定史跡",
    "name": "萱ノ鉄穴場跡",
    "yomi": "",
    "spot": "島根県雲南市",
    "lat": "35.185747392842764",
    "lng": "132.85064635713525",
    "zoom": "16",
    "image": "https://japan-heritage.bunka.go.jp/ja/datas/cache/images/2022/08/15/500x343_2ae395417f98b42be3d881be00011165_cfac2d1a934840519838f59952c8c8c487eb1f84.jpeg"
  },
  {
    "pidx": "1367",
    "jhno": "34",
    "pno": "3",
    "url": "https://japan-heritage.bunka.go.jp/ja/culturalproperties/result/2222/",
    "status": "未指定文化的景観",
    "name": "田部家土蔵群と吉田の街並み",
    "yomi": "",
    "spot": "島根県雲南市",
    "lat": "35.166688243908226",
    "lng": "132.84826659549253",
    "zoom": "18",
    "image": "https://japan-heritage.bunka.go.jp/ja/datas/cache/images/2022/08/15/500x343_2ae395417f98b42be3d881be00011165_adef4dda3a59048ac66ed63edd70aa57f9f6c037.jpeg"
  },
  {
    "pidx": "1368",
    "jhno": "34",
    "pno": "4",
    "url": "https://japan-heritage.bunka.go.jp/ja/culturalproperties/result/2223/",
    "status": "県指定有形民俗文化財",
    "name": "菅谷鑪製鉄用具141点",
    "yomi": "",
    "spot": "島根県雲南市",
    "lat": "35.16707130000001",
    "lng": "132.84960769999998",
    "zoom": "19",
    "image": "https://japan-heritage.bunka.go.jp/ja/datas/cache/images/2022/08/15/500x343_2ae395417f98b42be3d881be00011165_1b452231a380f74f7f805f0561de8da4a57ea355.jpeg"
  },
  {
    "pidx": "1369",
    "jhno": "34",
    "pno": "5",
    "url": "https://japan-heritage.bunka.go.jp/ja/culturalproperties/result/2224/",
    "status": "市指定有形民俗文化財",
    "name": "大鍛冶屋道具10点",
    "yomi": "",
    "spot": "島根県雲南市",
    "lat": "35.16707130000001",
    "lng": "132.84960769999998",
    "zoom": "19",
    "image": "https://japan-heritage.bunka.go.jp/ja/datas/cache/images/2022/08/15/500x343_2ae395417f98b42be3d881be00011165_25290dc098e4bf52a1166122aa757dc8d136c131.jpeg"
  },
  {
    "pidx": "1370",
    "jhno": "34",
    "pno": "6",
    "url": "https://japan-heritage.bunka.go.jp/ja/culturalproperties/result/2225/",
    "status": "県指定無形民俗文化財",
    "name": "槻の屋神楽",
    "yomi": "",
    "spot": "島根県雲南市",
    "lat": "35.32653099999999",
    "lng": "132.99305800000002",
    "zoom": "19",
    "image": "https://japan-heritage.bunka.go.jp/ja/datas/cache/images/2022/08/15/500x343_2ae395417f98b42be3d881be00011165_963ec615fcbd523106f606f12bdb924247457166.jpeg"
  },
  {
    "pidx": "1371",
    "jhno": "34",
    "pno": "7",
    "url": "https://japan-heritage.bunka.go.jp/ja/culturalproperties/result/2226/",
    "status": "県指定無形民俗文化財",
    "name": "大原神職神楽",
    "yomi": "",
    "spot": "島根県雲南市",
    "lat": "35.32653099999999",
    "lng": "132.99305800000002",
    "zoom": "19",
    "image": "https://japan-heritage.bunka.go.jp/ja/datas/cache/images/2022/08/15/500x343_2ae395417f98b42be3d881be00011165_f7bf8ef303325dcf67b4a8f5ebc7c5499b5b55a0.jpeg"
  },
  {
    "pidx": "1372",
    "jhno": "34",
    "pno": "8",
    "url": "https://japan-heritage.bunka.go.jp/ja/culturalproperties/result/2227/",
    "status": "県指定無形民俗文化財",
    "name": "海潮山王寺神楽",
    "yomi": "",
    "spot": "島根県雲南市",
    "lat": "35.32653099999999",
    "lng": "132.99305800000002",
    "zoom": "19",
    "image": "https://japan-heritage.bunka.go.jp/ja/datas/cache/images/2022/08/15/500x343_2ae395417f98b42be3d881be00011165_0b17075ba8c065fe391bb8c8a1716d624912cfd9.jpeg"
  },
  {
    "pidx": "1373",
    "jhno": "34",
    "pno": "9",
    "url": "https://japan-heritage.bunka.go.jp/ja/culturalproperties/result/2228/",
    "status": "市指定無形民俗文化財",
    "name": "海潮神代神楽",
    "yomi": "",
    "spot": "島根県雲南市",
    "lat": "35.32653099999999",
    "lng": "132.99305800000002",
    "zoom": "19",
    "image": "https://japan-heritage.bunka.go.jp/ja/datas/cache/images/2022/08/15/500x343_2ae395417f98b42be3d881be00011165_ae53dc21f0517551a2bc8213a42f4ce1812a5be5.jpeg"
  },
  {
    "pidx": "1374",
    "jhno": "34",
    "pno": "10",
    "url": "https://japan-heritage.bunka.go.jp/ja/culturalproperties/result/2229/",
    "status": "市指定無形民俗文化財",
    "name": "日登神楽",
    "yomi": "",
    "spot": "島根県雲南市",
    "lat": "35.32653099999999",
    "lng": "132.99305800000002",
    "zoom": "19",
    "image": "https://japan-heritage.bunka.go.jp/ja/datas/cache/images/2022/08/15/500x343_2ae395417f98b42be3d881be00011165_f8ae52bf97081a94f1ed96813ab3c1d53fb33b89.jpeg"
  },
  {
    "pidx": "1375",
    "jhno": "34",
    "pno": "11",
    "url": "https://japan-heritage.bunka.go.jp/ja/culturalproperties/result/2230/",
    "status": "市指定無形民俗文化財",
    "name": "佐世神楽",
    "yomi": "",
    "spot": "島根県雲南市",
    "lat": "35.32653099999999",
    "lng": "132.99305800000002",
    "zoom": "19",
    "image": "https://japan-heritage.bunka.go.jp/ja/datas/cache/images/2022/08/15/500x343_2ae395417f98b42be3d881be00011165_e84a4394c734c6a5516573262d46995f429e7de3.jpeg"
  },
  {
    "pidx": "1376",
    "jhno": "34",
    "pno": "12",
    "url": "https://japan-heritage.bunka.go.jp/ja/culturalproperties/result/2231/",
    "status": "県立自然公園、日本の滝百選",
    "name": "龍頭が滝",
    "yomi": "",
    "spot": "島根県雲南市",
    "lat": "35.1949409",
    "lng": "132.78327230000002",
    "zoom": "18",
    "image": "https://japan-heritage.bunka.go.jp/ja/datas/cache/images/2022/08/15/500x343_2ae395417f98b42be3d881be00011165_ff5edd7e68e3dc9ec46aa6ec903c012ec9b4439f.jpeg"
  },
  {
    "pidx": "1377",
    "jhno": "34",
    "pno": "13",
    "url": "https://japan-heritage.bunka.go.jp/ja/culturalproperties/result/2232/",
    "status": "県立自然公園、日本の滝百選",
    "name": "八重滝",
    "yomi": "",
    "spot": "島根県雲南市",
    "lat": "35.15591089999999",
    "lng": "132.80914640000003",
    "zoom": "18",
    "image": "https://japan-heritage.bunka.go.jp/ja/datas/cache/images/2022/08/15/500x343_2ae395417f98b42be3d881be00011165_00c549595c5c71e29e55d5fdd237962695b61a47.jpeg"
  },
  {
    "pidx": "1378",
    "jhno": "34",
    "pno": "14",
    "url": "https://japan-heritage.bunka.go.jp/ja/culturalproperties/result/2233/",
    "status": "県指定有形文化財",
    "name": "金屋子神社",
    "yomi": "",
    "spot": "島根県安来市",
    "lat": "35.24487799999997",
    "lng": "133.10971900000004",
    "zoom": "18",
    "image": "https://japan-heritage.bunka.go.jp/ja/datas/cache/images/2022/08/15/500x343_2ae395417f98b42be3d881be00011165_3c4ba49e9a8e8d295ef812bbbd8fcfd23a93a83e.jpeg"
  },
  {
    "pidx": "1379",
    "jhno": "34",
    "pno": "15",
    "url": "https://japan-heritage.bunka.go.jp/ja/culturalproperties/result/2234/",
    "status": "未指定文化的景観",
    "name": "金屋子神社と西比田の町",
    "yomi": "",
    "spot": "島根県安来市",
    "lat": "35.23544882698073",
    "lng": "133.12710252542456",
    "zoom": "19",
    "image": "https://japan-heritage.bunka.go.jp/ja/datas/cache/images/2022/08/15/500x343_2ae395417f98b42be3d881be00011165_e453c5f49e5290fd8d39920d2265716412b8b350.jpeg"
  },
  {
    "pidx": "1380",
    "jhno": "34",
    "pno": "16",
    "url": "https://japan-heritage.bunka.go.jp/ja/culturalproperties/result/2235/",
    "status": "国選定保存技術",
    "name": "玉鋼製造（たたら吹き）伝承",
    "yomi": "",
    "spot": "島根県奥出雲町",
    "lat": "35.1921346",
    "lng": "133.13038729999994",
    "zoom": "18",
    "image": "https://japan-heritage.bunka.go.jp/ja/datas/cache/images/2022/08/15/500x343_2ae395417f98b42be3d881be00011165_84a84176c44509d63db6f7480cd03e04ffe76f23.jpeg"
  },
  {
    "pidx": "1381",
    "jhno": "34",
    "pno": "17",
    "url": "https://japan-heritage.bunka.go.jp/ja/culturalproperties/result/2236/",
    "status": "国指定天然記念物",
    "name": "竹﨑のカツラ",
    "yomi": "",
    "spot": "島根県奥出雲町",
    "lat": "35.190098400000025",
    "lng": "133.18117069999994",
    "zoom": "17",
    "image": "https://japan-heritage.bunka.go.jp/ja/datas/cache/images/2022/08/15/500x343_2ae395417f98b42be3d881be00011165_7ced1e9100e6795fc2088903d5519cae378d2160.jpeg"
  },
  {
    "pidx": "1382",
    "jhno": "34",
    "pno": "18",
    "url": "https://japan-heritage.bunka.go.jp/ja/culturalproperties/result/2237/",
    "status": "国選定重要文化的景観",
    "name": "奥出雲たたら製鉄及び棚田の文化的景観",
    "yomi": "",
    "spot": "島根県奥出雲町",
    "lat": "35.13956447795585",
    "lng": "132.94665115120392",
    "zoom": "16",
    "image": "https://japan-heritage.bunka.go.jp/ja/datas/cache/images/2022/08/15/500x343_2ae395417f98b42be3d881be00011165_ab5ebc2bea70d2c020087a85ff54fb5154d93805.jpeg"
  },
  {
    "pidx": "1383",
    "jhno": "34",
    "pno": "19",
    "url": "https://japan-heritage.bunka.go.jp/ja/culturalproperties/result/2238/",
    "status": "国選定重要文化的景観、国登録有形文化財",
    "name": "鳥上木炭銑工場角炉",
    "yomi": "",
    "spot": "島根県奥出雲町",
    "lat": "35.1921346",
    "lng": "133.13038729999994",
    "zoom": "18",
    "image": "https://japan-heritage.bunka.go.jp/ja/datas/cache/images/2022/08/15/500x343_2ae395417f98b42be3d881be00011165_b3641fd7cc08166842123b2bb7dc0ef6649a3dac.jpeg"
  },
  {
    "pidx": "1384",
    "jhno": "34",
    "pno": "20",
    "url": "https://japan-heritage.bunka.go.jp/ja/culturalproperties/result/2239/",
    "status": "国選定重要文化的景観、国指定重要文化財",
    "name": "櫻井家住宅",
    "yomi": "",
    "spot": "島根県奥出雲町",
    "lat": "35.1085866",
    "lng": "132.94102420000002",
    "zoom": "17",
    "image": "https://japan-heritage.bunka.go.jp/ja/datas/cache/images/2022/08/15/500x343_2ae395417f98b42be3d881be00011165_1f344023e6abe9f73cab48d8df1fb0672e249405.jpeg"
  },
  {
    "pidx": "1385",
    "jhno": "34",
    "pno": "21",
    "url": "https://japan-heritage.bunka.go.jp/ja/culturalproperties/result/2240/",
    "status": "国選定重要文化的景観、国登録有形文化財",
    "name": "絲原家住宅",
    "yomi": "",
    "spot": "島根県奥出雲町",
    "lat": "35.17470689999999",
    "lng": "133.0344447",
    "zoom": "17",
    "image": "https://japan-heritage.bunka.go.jp/ja/datas/cache/images/2022/08/15/500x343_2ae395417f98b42be3d881be00011165_04cf94595383417c66cf54dc4f753229be57f799.jpeg"
  },
  {
    "pidx": "1386",
    "jhno": "34",
    "pno": "22",
    "url": "https://japan-heritage.bunka.go.jp/ja/culturalproperties/result/2241/",
    "status": "国名勝及び天然記念物",
    "name": "鬼舌振",
    "yomi": "",
    "spot": "島根県奥出雲町",
    "lat": "35.17571160000003",
    "lng": "133.01766350000003",
    "zoom": "17",
    "image": "https://japan-heritage.bunka.go.jp/ja/datas/cache/images/2022/08/15/500x343_2ae395417f98b42be3d881be00011165_6e6e7aaf053c48e3f01fb39956ac63c9e88f7d77.jpeg"
  },
  {
    "pidx": "1387",
    "jhno": "34",
    "pno": "23",
    "url": "https://japan-heritage.bunka.go.jp/ja/culturalproperties/result/2242/",
    "status": "国選定重要文化的景観、県指定史跡",
    "name": "陰地たたら跡",
    "yomi": "",
    "spot": "島根県奥出雲町",
    "lat": "35.16805509999997",
    "lng": "133.03859710000006",
    "zoom": "17",
    "image": "https://japan-heritage.bunka.go.jp/ja/datas/cache/images/2022/08/15/500x343_2ae395417f98b42be3d881be00011165_fb664006760cb08e551f024eae73e96dfc6f5e25.jpeg"
  },
  {
    "pidx": "1388",
    "jhno": "34",
    "pno": "24",
    "url": "https://japan-heritage.bunka.go.jp/ja/culturalproperties/result/2243/",
    "status": "国選定重要文化的景観",
    "name": "羽内谷鉱山",
    "yomi": "",
    "spot": "島根県奥出雲町",
    "lat": "35.19654499999997",
    "lng": "133.169618",
    "zoom": "17",
    "image": "https://japan-heritage.bunka.go.jp/ja/datas/cache/images/2022/08/15/500x343_2ae395417f98b42be3d881be00011165_e5c194e1e6a4ca09a402c18877354b33829c27f7.jpeg"
  },
  {
    "pidx": "1389",
    "jhno": "34",
    "pno": "25",
    "url": "https://japan-heritage.bunka.go.jp/ja/culturalproperties/result/2244/",
    "status": "町指定有形民俗文化財",
    "name": "鉄穴流し本場",
    "yomi": "",
    "spot": "島根県奥出雲町",
    "lat": "35.19654499999997",
    "lng": "133.169618",
    "zoom": "17",
    "image": "https://japan-heritage.bunka.go.jp/ja/datas/cache/images/2022/08/15/500x343_2ae395417f98b42be3d881be00011165_a1959b1ec2c81a9957014c36ffb5dd7a74acbe8b.jpeg"
  },
  {
    "pidx": "1390",
    "jhno": "34",
    "pno": "26",
    "url": "https://japan-heritage.bunka.go.jp/ja/culturalproperties/result/2245/",
    "status": "国選定重要文化的景観、町指定名勝",
    "name": "旧ト蔵氏庭園",
    "yomi": "",
    "spot": "島根県奥出雲町",
    "lat": "35.1833423",
    "lng": "133.15284070000007",
    "zoom": "17",
    "image": "https://japan-heritage.bunka.go.jp/ja/datas/cache/images/2022/08/15/500x343_2ae395417f98b42be3d881be00011165_dd7a588403e933c08404934d87663e32ee773fe4.jpeg"
  },
  {
    "pidx": "1391",
    "jhno": "34",
    "pno": "27",
    "url": "https://japan-heritage.bunka.go.jp/ja/culturalproperties/result/2246/",
    "status": "国選定重要文化的景観、町指定史跡",
    "name": "原たたら（叢雲たたら）跡",
    "yomi": "",
    "spot": "島根県奥出雲町",
    "lat": "35.17086160000003",
    "lng": "133.16030499999988",
    "zoom": "17",
    "image": "https://japan-heritage.bunka.go.jp/ja/datas/cache/images/2022/08/15/500x343_2ae395417f98b42be3d881be00011165_602b9f8054282696ce8a341b18d9f70816d382db.jpeg"
  },
  {
    "pidx": "1392",
    "jhno": "34",
    "pno": "28",
    "url": "https://japan-heritage.bunka.go.jp/ja/culturalproperties/result/2247/",
    "status": "国選定重要文化的景観",
    "name": "槙原たたら角炉",
    "yomi": "",
    "spot": "島根県奥出雲町",
    "lat": "35.12043520000002",
    "lng": "132.94381550000003",
    "zoom": "17",
    "image": "https://japan-heritage.bunka.go.jp/ja/datas/cache/images/2022/08/15/500x343_2ae395417f98b42be3d881be00011165_3db144b9349216814e693a86efa438ab238679da.jpeg"
  },
  {
    "pidx": "1393",
    "jhno": "34",
    "pno": "29",
    "url": "https://japan-heritage.bunka.go.jp/ja/culturalproperties/result/2248/",
    "status": "未指定名勝",
    "name": "卜蔵新田",
    "yomi": "",
    "spot": "島根県安来市",
    "lat": "35.43189778553263",
    "lng": "133.19806681101102",
    "zoom": "18",
    "image": "https://japan-heritage.bunka.go.jp/ja/datas/cache/images/2022/08/15/500x343_2ae395417f98b42be3d881be00011165_b646ad91a0a59051c1153a1168af7f851afd8816.jpeg"
  },
  {
    "pidx": "1394",
    "jhno": "34",
    "pno": "30",
    "url": "https://japan-heritage.bunka.go.jp/ja/culturalproperties/result/2249/",
    "status": "国指定重要有形民俗文化財",
    "name": "たたら製鉄用具250点",
    "yomi": "",
    "spot": "島根県安来市",
    "lat": "35.43533349999999",
    "lng": "133.25370369999996",
    "zoom": "18",
    "image": "https://japan-heritage.bunka.go.jp/ja/datas/cache/images/2022/08/15/500x343_2ae395417f98b42be3d881be00011165_128eed991da98dbb3378db993ea6c997621659fe.jpeg"
  },
  {
    "pidx": "1395",
    "jhno": "34",
    "pno": "31",
    "url": "https://japan-heritage.bunka.go.jp/ja/culturalproperties/result/2250/",
    "status": "県指定無形文化財",
    "name": "日本刀（小林貞俊・小林力夫）",
    "yomi": "",
    "spot": "島根県奥出雲町",
    "lat": "35.17396700000001",
    "lng": "133.090108",
    "zoom": "18",
    "image": "https://japan-heritage.bunka.go.jp/ja/datas/cache/images/2022/08/15/500x343_2ae395417f98b42be3d881be00011165_98c8cf1d494713e135396c7e606f925ef97dfa13.jpeg"
  },
  {
    "pidx": "1396",
    "jhno": "34",
    "pno": "32",
    "url": "https://japan-heritage.bunka.go.jp/ja/culturalproperties/result/2251/",
    "status": "市指定文化財",
    "name": "たたら絵巻「玉鋼縁起」",
    "yomi": "",
    "spot": "島根県安来市",
    "lat": "35.43533349999999",
    "lng": "133.25370369999996",
    "zoom": "18",
    "image": "https://japan-heritage.bunka.go.jp/ja/datas/cache/images/2022/08/15/500x343_2ae395417f98b42be3d881be00011165_8a44a33a17e5aa3ba84c93b66797111a69549f77.jpeg"
  },
  {
    "pidx": "1397",
    "jhno": "34",
    "pno": "33",
    "url": "https://japan-heritage.bunka.go.jp/ja/culturalproperties/result/2252/",
    "status": "未指定文化的景観",
    "name": "安来港と安来の街並み",
    "yomi": "",
    "spot": "島根県安来市",
    "lat": "35.433153184933374",
    "lng": "133.25559108915127",
    "zoom": "18",
    "image": "https://japan-heritage.bunka.go.jp/ja/datas/cache/images/2022/08/15/500x343_2ae395417f98b42be3d881be00011165_3e623dee04d1b8bf80972c87935b28f6835baec6.jpeg"
  },
  {
    "pidx": "1398",
    "jhno": "34",
    "pno": "34",
    "url": "https://japan-heritage.bunka.go.jp/ja/culturalproperties/result/2253/",
    "status": "市指定無形文化財",
    "name": "民謡安来節",
    "yomi": "",
    "spot": "島根県安来市",
    "lat": "35.38111780000001",
    "lng": "133.1972854999999",
    "zoom": "18",
    "image": "https://japan-heritage.bunka.go.jp/ja/datas/cache/images/2022/08/15/500x343_2ae395417f98b42be3d881be00011165_0d58cfb509a622e405ddb5036ff9e1a07a660afb.jpeg"
  },
  {
    "pidx": "1399",
    "jhno": "34",
    "pno": "35",
    "url": "https://japan-heritage.bunka.go.jp/ja/culturalproperties/result/2254/",
    "status": "未指定文化的景観",
    "name": "飯梨川と赤江の新田開発",
    "yomi": "",
    "spot": "島根県安来市",
    "lat": "35.429441702589685",
    "lng": "133.22637456293342",
    "zoom": "19",
    "image": "https://japan-heritage.bunka.go.jp/ja/datas/cache/images/2022/08/15/500x343_2ae395417f98b42be3d881be00011165_5df49a9a5981211fe3a778659ea969ca1f7a56ad.jpeg"
  },
  {
    "pidx": "1400",
    "jhno": "34",
    "pno": "36",
    "url": "https://japan-heritage.bunka.go.jp/ja/culturalproperties/result/2255/",
    "status": "未指定無形民俗文化財",
    "name": "大呂愛宕ばやし",
    "yomi": "",
    "spot": "島根県奥出雲町",
    "lat": "35.18463840000004",
    "lng": "133.1309099",
    "zoom": "18",
    "image": "https://japan-heritage.bunka.go.jp/ja/datas/cache/images/2022/08/15/500x343_2ae395417f98b42be3d881be00011165_5d798b8daf8326842fff3ead6533376cf362ea9f.jpeg"
  },
  {
    "pidx": "1401",
    "jhno": "34",
    "pno": "37",
    "url": "https://japan-heritage.bunka.go.jp/ja/culturalproperties/result/2256/",
    "status": "未指定無形民俗文化財",
    "name": "竹﨑十七夜",
    "yomi": "",
    "spot": "島根県奥出雲町",
    "lat": "35.1812667",
    "lng": "133.1395205",
    "zoom": "18",
    "image": "https://japan-heritage.bunka.go.jp/ja/datas/cache/images/2022/08/15/500x343_2ae395417f98b42be3d881be00011165_5c6522e5762c77225dc0e1c8c30cd47b6b993394.jpeg"
  }
]