[
  {
    "pidx": "2030",
    "jhno": "40",
    "pno": "1",
    "url": "https://japan-heritage.bunka.go.jp/ja/culturalproperties/result/2961/",
    "status": "国史跡",
    "name": "松ヶ岡開墾場",
    "yomi": "",
    "spot": "山形県鶴岡市",
    "lat": "38.7003206",
    "lng": "139.8865604",
    "zoom": "17",
    "image": "https://japan-heritage.bunka.go.jp/ja/datas/cache/images/2022/08/15/500x343_2ae395417f98b42be3d881be00011165_3626f06f3c249f5f320780254c85abf33ab32717.jpeg"
  },
  {
    "pidx": "2031",
    "jhno": "40",
    "pno": "2",
    "url": "https://japan-heritage.bunka.go.jp/ja/culturalproperties/result/2962/",
    "status": "",
    "name": "松ヶ岡本陣",
    "yomi": "",
    "spot": "山形県鶴岡市",
    "lat": "38.700036",
    "lng": "139.8844435",
    "zoom": "17",
    "image": "https://japan-heritage.bunka.go.jp/ja/datas/cache/images/2022/08/15/500x343_2ae395417f98b42be3d881be00011165_c84f8f948744f23cb21d432040867f26fdbb6cb2.jpeg"
  },
  {
    "pidx": "2032",
    "jhno": "40",
    "pno": "3",
    "url": "https://japan-heritage.bunka.go.jp/ja/culturalproperties/result/2963/",
    "status": "",
    "name": "松ヶ岡蚕室群",
    "yomi": "",
    "spot": "山形県鶴岡市",
    "lat": "38.6999424",
    "lng": "139.8860855",
    "zoom": "17",
    "image": "https://japan-heritage.bunka.go.jp/ja/datas/cache/images/2022/08/15/500x343_2ae395417f98b42be3d881be00011165_dff17738ca5ca3a7e61e767f6964682f0009fe58.jpeg"
  },
  {
    "pidx": "2033",
    "jhno": "40",
    "pno": "4",
    "url": "https://japan-heritage.bunka.go.jp/ja/culturalproperties/result/2964/",
    "status": "",
    "name": "松ヶ岡蚕業稲荷神社",
    "yomi": "",
    "spot": "山形県鶴岡市",
    "lat": "38.700036",
    "lng": "139.8844435",
    "zoom": "17",
    "image": "https://japan-heritage.bunka.go.jp/ja/datas/cache/images/2022/08/15/500x343_2ae395417f98b42be3d881be00011165_dadaf31a427342d0fe1877c3c7396686b218b30d.jpeg"
  },
  {
    "pidx": "2034",
    "jhno": "40",
    "pno": "5",
    "url": "https://japan-heritage.bunka.go.jp/ja/culturalproperties/result/2965/",
    "status": "市有形",
    "name": "松ヶ岡開墾士住宅",
    "yomi": "",
    "spot": "山形県鶴岡市",
    "lat": "38.7000852",
    "lng": "139.8875361",
    "zoom": "17",
    "image": "https://japan-heritage.bunka.go.jp/ja/datas/cache/images/2022/08/15/500x343_2ae395417f98b42be3d881be00011165_e2319e54e9bac3aee92b56f0d00c9e89bcb05e47.jpeg"
  },
  {
    "pidx": "2035",
    "jhno": "40",
    "pno": "6",
    "url": "https://japan-heritage.bunka.go.jp/ja/culturalproperties/result/2966/",
    "status": "県指定",
    "name": "旧遠藤家住宅",
    "yomi": "",
    "spot": "山形県鶴岡市",
    "lat": "38.5701849",
    "lng": "139.9188938",
    "zoom": "17",
    "image": "https://japan-heritage.bunka.go.jp/ja/datas/cache/images/2022/08/15/500x343_2ae395417f98b42be3d881be00011165_949920d15fceb1a2bab11f05267a629538c9f3cb.jpeg"
  },
  {
    "pidx": "2036",
    "jhno": "40",
    "pno": "7",
    "url": "https://japan-heritage.bunka.go.jp/ja/culturalproperties/result/2967/",
    "status": "国重文",
    "name": "旧風間家住宅　丙申堂",
    "yomi": "",
    "spot": "山形県鶴岡市",
    "lat": "38.7285522",
    "lng": "139.8292706",
    "zoom": "17",
    "image": "https://japan-heritage.bunka.go.jp/ja/datas/cache/images/2022/08/15/500x343_2ae395417f98b42be3d881be00011165_256adf6eed55f3046e675b913a07948e6d90b5df.jpeg"
  },
  {
    "pidx": "2037",
    "jhno": "40",
    "pno": "8",
    "url": "https://japan-heritage.bunka.go.jp/ja/culturalproperties/result/2968/",
    "status": "国登録",
    "name": "風間家旧宅　表門",
    "yomi": "",
    "spot": "山形県鶴岡市",
    "lat": "38.7285522",
    "lng": "139.8292706",
    "zoom": "17",
    "image": "https://japan-heritage.bunka.go.jp/ja/datas/cache/images/2022/08/15/500x343_2ae395417f98b42be3d881be00011165_c4df8c3df023970a41df689d4cdd2e38c4b5c158.jpeg"
  },
  {
    "pidx": "2038",
    "jhno": "40",
    "pno": "9",
    "url": "https://japan-heritage.bunka.go.jp/ja/culturalproperties/result/2969/",
    "status": "国登録",
    "name": "風間家旧宅　西側板塀",
    "yomi": "",
    "spot": "山形県鶴岡市",
    "lat": "38.7285522",
    "lng": "139.8292706",
    "zoom": "17",
    "image": "https://japan-heritage.bunka.go.jp/ja/datas/cache/images/2022/08/15/500x343_2ae395417f98b42be3d881be00011165_01e27d468fb93eee21903993124c2f220bea9d54.jpeg"
  },
  {
    "pidx": "2039",
    "jhno": "40",
    "pno": "10",
    "url": "https://japan-heritage.bunka.go.jp/ja/culturalproperties/result/2970/",
    "status": "国登録",
    "name": "風間家旧別邸　無量光苑釈迦堂",
    "yomi": "",
    "spot": "山形県鶴岡市",
    "lat": "38.7293733",
    "lng": "139.8294396",
    "zoom": "17",
    "image": "https://japan-heritage.bunka.go.jp/ja/datas/cache/images/2022/08/15/500x343_2ae395417f98b42be3d881be00011165_178725657b62642545525cfbfb7560f0802e471b.jpeg"
  },
  {
    "pidx": "2040",
    "jhno": "40",
    "pno": "11",
    "url": "https://japan-heritage.bunka.go.jp/ja/culturalproperties/result/2971/",
    "status": "国登録",
    "name": "風間家旧別邸　土蔵",
    "yomi": "",
    "spot": "山形県鶴岡市",
    "lat": "38.7293733",
    "lng": "139.8294396",
    "zoom": "17",
    "image": "https://japan-heritage.bunka.go.jp/ja/datas/cache/images/2022/08/15/500x343_2ae395417f98b42be3d881be00011165_9b2fbfdd3e65e55ab7c283158c46a232f031d2e1.jpeg"
  },
  {
    "pidx": "2041",
    "jhno": "40",
    "pno": "12",
    "url": "https://japan-heritage.bunka.go.jp/ja/culturalproperties/result/2972/",
    "status": "国登録",
    "name": "風間家旧別邸　表門",
    "yomi": "",
    "spot": "山形県鶴岡市",
    "lat": "38.7293733",
    "lng": "139.8294396",
    "zoom": "17",
    "image": "https://japan-heritage.bunka.go.jp/ja/datas/cache/images/2022/08/15/500x343_2ae395417f98b42be3d881be00011165_7a401340f37684ca838bcab60353e14ecab8975f.jpeg"
  },
  {
    "pidx": "2042",
    "jhno": "40",
    "pno": "13",
    "url": "https://japan-heritage.bunka.go.jp/ja/culturalproperties/result/2973/",
    "status": "国登録",
    "name": "風間家旧別邸　中門",
    "yomi": "",
    "spot": "山形県鶴岡市",
    "lat": "38.7293733",
    "lng": "139.8294396",
    "zoom": "17",
    "image": "https://japan-heritage.bunka.go.jp/ja/datas/cache/images/2022/08/15/500x343_2ae395417f98b42be3d881be00011165_7b13760f3cb1f6a9eff27dfcdad25c5cb5ff52c7.jpeg"
  },
  {
    "pidx": "2043",
    "jhno": "40",
    "pno": "14",
    "url": "https://japan-heritage.bunka.go.jp/ja/culturalproperties/result/2974/",
    "status": "国登録",
    "name": "風間家旧別邸　北門",
    "yomi": "",
    "spot": "山形県鶴岡市",
    "lat": "38.7293733",
    "lng": "139.8294396",
    "zoom": "17",
    "image": "https://japan-heritage.bunka.go.jp/ja/datas/cache/images/2022/08/15/500x343_2ae395417f98b42be3d881be00011165_0bded290023f361cc1d0553af3407f196c719d0d.jpeg"
  },
  {
    "pidx": "2044",
    "jhno": "40",
    "pno": "15",
    "url": "https://japan-heritage.bunka.go.jp/ja/culturalproperties/result/2975/",
    "status": "国登録",
    "name": "風間家旧別邸　板塀",
    "yomi": "",
    "spot": "山形県鶴岡市",
    "lat": "38.7293733",
    "lng": "139.8294396",
    "zoom": "17",
    "image": "https://japan-heritage.bunka.go.jp/ja/datas/cache/images/2022/08/15/500x343_2ae395417f98b42be3d881be00011165_3226fa80242b0d8acc9b2121ed9a0bc89ab42f7a.jpeg"
  },
  {
    "pidx": "2045",
    "jhno": "40",
    "pno": "16",
    "url": "https://japan-heritage.bunka.go.jp/ja/culturalproperties/result/2976/",
    "status": "国重文",
    "name": "旧渋谷家住宅",
    "yomi": "",
    "spot": "山形県鶴岡市",
    "lat": "38.7280867",
    "lng": "139.8210695",
    "zoom": "17",
    "image": "https://japan-heritage.bunka.go.jp/ja/datas/cache/images/2022/08/15/500x343_2ae395417f98b42be3d881be00011165_dafe719326b911a30d4d9cad998fcaa29c8c511c.jpeg"
  },
  {
    "pidx": "2046",
    "jhno": "40",
    "pno": "17",
    "url": "https://japan-heritage.bunka.go.jp/ja/culturalproperties/result/2977/",
    "status": "国重文",
    "name": "旧西田川郡役所",
    "yomi": "",
    "spot": "山形県鶴岡市",
    "lat": "38.7280867",
    "lng": "139.8210695",
    "zoom": "17",
    "image": "https://japan-heritage.bunka.go.jp/ja/datas/cache/images/2022/08/15/500x343_2ae395417f98b42be3d881be00011165_054d9e34a63c6fd33e77e548892237b26a3231b6.jpeg"
  },
  {
    "pidx": "2047",
    "jhno": "40",
    "pno": "18",
    "url": "https://japan-heritage.bunka.go.jp/ja/culturalproperties/result/2978/",
    "status": "未指定",
    "name": "旧庄内藩主御隠殿",
    "yomi": "",
    "spot": "山形県鶴岡市",
    "lat": "38.7280867",
    "lng": "139.8210695",
    "zoom": "17",
    "image": "https://japan-heritage.bunka.go.jp/ja/datas/cache/images/2022/08/15/500x343_2ae395417f98b42be3d881be00011165_af312ca9f6711d58c920d49376e66a551027f75a.jpeg"
  },
  {
    "pidx": "2048",
    "jhno": "40",
    "pno": "19",
    "url": "https://japan-heritage.bunka.go.jp/ja/culturalproperties/result/2979/",
    "status": "国史跡",
    "name": "庄内藩校致道館",
    "yomi": "",
    "spot": "山形県鶴岡市",
    "lat": "38.7261636",
    "lng": "139.8264619",
    "zoom": "17",
    "image": "https://japan-heritage.bunka.go.jp/ja/datas/cache/images/2022/08/15/500x343_2ae395417f98b42be3d881be00011165_4f8bf1404f701aa71cd4fefe03c58ff54f2a2119.jpeg"
  },
  {
    "pidx": "2049",
    "jhno": "40",
    "pno": "20",
    "url": "https://japan-heritage.bunka.go.jp/ja/culturalproperties/result/2980/",
    "status": "",
    "name": "羽前絹錬株式会社",
    "yomi": "",
    "spot": "山形県鶴岡市",
    "lat": "38.72861169999999",
    "lng": "139.8172294",
    "zoom": "17",
    "image": "https://japan-heritage.bunka.go.jp/ja/datas/cache/images/2022/08/15/500x343_2ae395417f98b42be3d881be00011165_522db4f1044473bf5a9cd772b977128f2369e452.jpeg"
  }
]