[
  {
    "pidx": "2499",
    "jhno": "53",
    "pno": "1",
    "url": "https://japan-heritage.bunka.go.jp/ja/culturalproperties/result/3492/",
    "status": "未指定",
    "name": "菊池川",
    "yomi": "",
    "spot": "熊本県玉名市熊本県山鹿市熊本県菊池市熊本県和水町",
    "lat": "33.01198510518725",
    "lng": "130.67995599999995",
    "zoom": "17",
    "image": "https://japan-heritage.bunka.go.jp/ja/datas/cache/images/2022/08/15/500x343_2ae395417f98b42be3d881be00011165_6e8d7352068a579acc423687be0e0474f3dfe70b.jpeg"
  },
  {
    "pidx": "2500",
    "jhno": "53",
    "pno": "2",
    "url": "https://japan-heritage.bunka.go.jp/ja/culturalproperties/result/3493/",
    "status": "国史跡ほか",
    "name": "菊池川流域の弥生時代の大集落遺跡群",
    "yomi": "",
    "spot": "熊本県玉名市熊本県山鹿市熊本県菊池市熊本県和水町",
    "lat": "32.998003157112535",
    "lng": "130.71937400000002",
    "zoom": "18",
    "image": "https://japan-heritage.bunka.go.jp/ja/datas/cache/images/2022/08/15/500x343_2ae395417f98b42be3d881be00011165_aceffc2e1a1d74355402f7a6cc55f59c51021c4a.jpeg"
  },
  {
    "pidx": "2501",
    "jhno": "53",
    "pno": "3",
    "url": "https://japan-heritage.bunka.go.jp/ja/culturalproperties/result/3494/",
    "status": "国史跡",
    "name": "岩原双子塚古墳",
    "yomi": "",
    "spot": "熊本県山鹿市熊本県和水町",
    "lat": "32.9964264",
    "lng": "130.6692407",
    "zoom": "17",
    "image": "https://japan-heritage.bunka.go.jp/ja/datas/cache/images/2022/08/15/500x343_2ae395417f98b42be3d881be00011165_51028f707aba6c27d24cb9f2095e780e9d0a1646.jpeg"
  },
  {
    "pidx": "2502",
    "jhno": "53",
    "pno": "4",
    "url": "https://japan-heritage.bunka.go.jp/ja/culturalproperties/result/3495/",
    "status": "国史跡",
    "name": "江田船山古墳",
    "yomi": "",
    "spot": "熊本県山鹿市熊本県和水町",
    "lat": "32.9713034",
    "lng": "130.5996933",
    "zoom": "17",
    "image": "https://japan-heritage.bunka.go.jp/ja/datas/cache/images/2022/08/15/500x343_2ae395417f98b42be3d881be00011165_df4e7e541f173ad74875de1d10495cdccf6bd265.jpeg"
  },
  {
    "pidx": "2503",
    "jhno": "53",
    "pno": "5",
    "url": "https://japan-heritage.bunka.go.jp/ja/culturalproperties/result/3496/",
    "status": "国史跡ほか",
    "name": "菊池川流域の装飾古墳群　チブサン古墳",
    "yomi": "",
    "spot": "熊本県玉名市熊本県山鹿市熊本県菊池市熊本県和水町",
    "lat": "33.029878",
    "lng": "130.6695222",
    "zoom": "17",
    "image": "https://japan-heritage.bunka.go.jp/ja/datas/cache/images/2022/08/15/500x343_2ae395417f98b42be3d881be00011165_e62eb42f21c30c10fbf8ac5f6df4ee4e4195545f.jpeg"
  },
  {
    "pidx": "2504",
    "jhno": "53",
    "pno": "6",
    "url": "https://japan-heritage.bunka.go.jp/ja/culturalproperties/result/3497/",
    "status": "国史跡ほか",
    "name": "菊池川流域の装飾古墳群　大坊（だいぼう）古墳",
    "yomi": "",
    "spot": "熊本県玉名市熊本県山鹿市熊本県菊池市熊本県和水町",
    "lat": "32.948902",
    "lng": "130.5703781",
    "zoom": "17",
    "image": "https://japan-heritage.bunka.go.jp/ja/datas/images/2022/08/15/51a525baec2ef75f54762aca29671ebc8fd3b786.jpeg"
  },
  {
    "pidx": "2505",
    "jhno": "53",
    "pno": "7",
    "url": "https://japan-heritage.bunka.go.jp/ja/culturalproperties/result/3498/",
    "status": "未指定",
    "name": "菊池渓谷",
    "yomi": "",
    "spot": "熊本県菊池市",
    "lat": "33.00290890000001",
    "lng": "130.9451381",
    "zoom": "14",
    "image": "https://japan-heritage.bunka.go.jp/ja/datas/cache/images/2022/08/15/500x343_2ae395417f98b42be3d881be00011165_ccb0efdc8a2b1ce938e3dbb31b136aa95ccb0651.jpeg"
  },
  {
    "pidx": "2506",
    "jhno": "53",
    "pno": "8",
    "url": "https://japan-heritage.bunka.go.jp/ja/culturalproperties/result/3499/",
    "status": "未指定",
    "name": "菊池川流域の条里跡、区画割　山鹿市鹿本町庄一帯",
    "yomi": "",
    "spot": "熊本県玉名市熊本県山鹿市",
    "lat": "33.00977010556196",
    "lng": "130.76439800000003",
    "zoom": "17",
    "image": "https://japan-heritage.bunka.go.jp/ja/datas/cache/images/2022/08/15/500x343_2ae395417f98b42be3d881be00011165_b9542f1c13d645c8234aa06f6ac59f0bdab18431.jpeg"
  },
  {
    "pidx": "2507",
    "jhno": "53",
    "pno": "9",
    "url": "https://japan-heritage.bunka.go.jp/ja/culturalproperties/result/3500/",
    "status": "国史跡",
    "name": "鞠智城跡",
    "yomi": "",
    "spot": "熊本県山鹿市熊本県菊池市",
    "lat": "33.0025512",
    "lng": "130.7860737",
    "zoom": "17",
    "image": "https://japan-heritage.bunka.go.jp/ja/datas/cache/images/2022/08/15/500x343_2ae395417f98b42be3d881be00011165_9b983ce23b6c5b7ad7002d0d5dd2a89767d6ad57.jpeg"
  },
  {
    "pidx": "2508",
    "jhno": "53",
    "pno": "10",
    "url": "https://japan-heritage.bunka.go.jp/ja/culturalproperties/result/3501/",
    "status": "未指定",
    "name": "御宇田井手",
    "yomi": "",
    "spot": "熊本県山鹿市熊本県和水町",
    "lat": "33.0190652",
    "lng": "130.7610349",
    "zoom": "17",
    "image": "https://japan-heritage.bunka.go.jp/ja/datas/cache/images/2022/08/15/500x343_2ae395417f98b42be3d881be00011165_afdb1b6174306274ff15d977c85f8f66988f90bd.jpeg"
  },
  {
    "pidx": "2509",
    "jhno": "53",
    "pno": "11",
    "url": "https://japan-heritage.bunka.go.jp/ja/culturalproperties/result/3502/",
    "status": "未指定",
    "name": "菊池川流域の灌漑施設　原（はる）井手　顕彰碑",
    "yomi": "",
    "spot": "熊本県玉名市熊本県山鹿市熊本県菊池市熊本県和水町",
    "lat": "32.995999909662025",
    "lng": "130.85992",
    "zoom": "16",
    "image": "https://japan-heritage.bunka.go.jphttps://japan-heritage.bunka.go.jp/ja/files/images/home/noimage.jpg"
  },
  {
    "pidx": "2510",
    "jhno": "53",
    "pno": "12",
    "url": "https://japan-heritage.bunka.go.jp/ja/culturalproperties/result/3503/",
    "status": "未指定",
    "name": "菊池川流域の灌漑施設　湯ノ口溜池（蒲生の池）・遠山神社",
    "yomi": "",
    "spot": "熊本県玉名市熊本県山鹿市熊本県菊池市熊本県和水町",
    "lat": "33.01953689999999",
    "lng": "130.7441086",
    "zoom": "17",
    "image": "https://japan-heritage.bunka.go.jp/ja/datas/cache/images/2022/08/15/500x343_2ae395417f98b42be3d881be00011165_45c67e0c6b9a07fbd391193fd2b8ce9816c7ca49.jpeg"
  },
  {
    "pidx": "2511",
    "jhno": "53",
    "pno": "13",
    "url": "https://japan-heritage.bunka.go.jp/ja/culturalproperties/result/3504/",
    "status": "未指定",
    "name": "番所地区の棚田",
    "yomi": "",
    "spot": "熊本県山鹿市熊本県和水町",
    "lat": "33.0868044",
    "lng": "130.8010926",
    "zoom": "17",
    "image": "https://japan-heritage.bunka.go.jp/ja/datas/cache/images/2022/08/15/500x343_2ae395417f98b42be3d881be00011165_8374313a77e176feee871234ce26f564a23c65ff.jpeg"
  },
  {
    "pidx": "2512",
    "jhno": "53",
    "pno": "14",
    "url": "https://japan-heritage.bunka.go.jp/ja/culturalproperties/result/3505/",
    "status": "国重文（建造物）",
    "name": "旧玉名干拓施設",
    "yomi": "",
    "spot": "熊本県玉名市",
    "lat": "32.86503914105906",
    "lng": "130.53414099999998",
    "zoom": "15",
    "image": "https://japan-heritage.bunka.go.jp/ja/datas/cache/images/2022/08/15/500x343_2ae395417f98b42be3d881be00011165_3a6751d94ea33c342a2e97c8cb6fc700d29cfac8.jpeg"
  },
  {
    "pidx": "2513",
    "jhno": "53",
    "pno": "15",
    "url": "https://japan-heritage.bunka.go.jp/ja/culturalproperties/result/3506/",
    "status": "未指定",
    "name": "富田式暗渠排水技術",
    "yomi": "",
    "spot": "熊本県菊池市",
    "lat": "32.9866741094724",
    "lng": "130.76028599999995",
    "zoom": "17",
    "image": "https://japan-heritage.bunka.go.jp/ja/datas/images/2022/08/15/d40683ba14a18cd7713c369e36451fbba78b3f5f.jpeg"
  },
  {
    "pidx": "2514",
    "jhno": "53",
    "pno": "16",
    "url": "https://japan-heritage.bunka.go.jp/ja/culturalproperties/result/3507/",
    "status": "市指定（史跡）ほか",
    "name": "菊之城跡、赤星舟着場",
    "yomi": "",
    "spot": "熊本県菊池市",
    "lat": "32.9700028",
    "lng": "130.8066568",
    "zoom": "17",
    "image": "https://japan-heritage.bunka.go.jp/ja/datas/cache/images/2022/08/15/500x343_2ae395417f98b42be3d881be00011165_f580da87ab832c11970aab6fe33f26e8ac0e9f97.jpeg"
  },
  {
    "pidx": "2515",
    "jhno": "53",
    "pno": "17",
    "url": "https://japan-heritage.bunka.go.jp/ja/culturalproperties/result/3508/",
    "status": "未指定",
    "name": "菊池川の中世河口港関連遺跡群",
    "yomi": "",
    "spot": "熊本県玉名市",
    "lat": "32.904221172977145",
    "lng": "130.57339000000002",
    "zoom": "18",
    "image": "https://japan-heritage.bunka.go.jp/ja/datas/cache/images/2022/08/15/500x343_2ae395417f98b42be3d881be00011165_c4c9fa7b86ff9f7493dd6fdcdfe44145b87f0efb.jpeg"
  },
  {
    "pidx": "2516",
    "jhno": "53",
    "pno": "18",
    "url": "https://japan-heritage.bunka.go.jp/ja/culturalproperties/result/3509/",
    "status": "国指定（無形民俗）",
    "name": "菊池の松囃子",
    "yomi": "",
    "spot": "熊本県菊池市",
    "lat": "32.985080171679044",
    "lng": "130.811379",
    "zoom": "19",
    "image": "https://japan-heritage.bunka.go.jp/ja/datas/cache/images/2022/08/15/500x343_2ae395417f98b42be3d881be00011165_73bcf65a091a6beb0d2854caa7515b3209ab2c84.jpeg"
  },
  {
    "pidx": "2517",
    "jhno": "53",
    "pno": "19",
    "url": "https://japan-heritage.bunka.go.jp/ja/culturalproperties/result/3510/",
    "status": "市指定（史跡）",
    "name": "正観寺・菊池五山",
    "yomi": "",
    "spot": "熊本県菊池市",
    "lat": "32.9837575",
    "lng": "130.8167886",
    "zoom": "17",
    "image": "https://japan-heritage.bunka.go.jp/ja/datas/cache/images/2022/08/15/500x343_2ae395417f98b42be3d881be00011165_2b399eca6fc6cd89e3e4806a162d52a2a81037d9.jpeg"
  },
  {
    "pidx": "2518",
    "jhno": "53",
    "pno": "20",
    "url": "https://japan-heritage.bunka.go.jp/ja/culturalproperties/result/3511/",
    "status": "市指定（史跡）",
    "name": "菊池川下流域の船着場と港町",
    "yomi": "",
    "spot": "熊本県玉名市",
    "lat": "32.9236058",
    "lng": "130.5618587",
    "zoom": "17",
    "image": "https://japan-heritage.bunka.go.jp/ja/datas/cache/images/2022/08/15/500x343_2ae395417f98b42be3d881be00011165_562ba581d4d4521cf778d2ad3382ed36d76a9c10.jpeg"
  },
  {
    "pidx": "2519",
    "jhno": "53",
    "pno": "21",
    "url": "https://japan-heritage.bunka.go.jp/ja/culturalproperties/result/3512/",
    "status": "市指定（史跡）",
    "name": "高瀬御蔵跡・御茶屋跡",
    "yomi": "",
    "spot": "熊本県玉名市",
    "lat": "32.925028169447266",
    "lng": "130.56153800000004",
    "zoom": "18",
    "image": "https://japan-heritage.bunka.go.jp/ja/datas/cache/images/2022/08/15/500x343_2ae395417f98b42be3d881be00011165_83c2fdb062f9cd7a13210c53a212f182b8a2a009.jpeg"
  },
  {
    "pidx": "2520",
    "jhno": "53",
    "pno": "22",
    "url": "https://japan-heritage.bunka.go.jp/ja/culturalproperties/result/3513/",
    "status": "未指定",
    "name": "山鹿湯町　豊前街道沿いの歴史的町並み",
    "yomi": "",
    "spot": "熊本県山鹿市熊本県和水町",
    "lat": "33.011680157388284",
    "lng": "130.68649648350538",
    "zoom": "17",
    "image": "https://japan-heritage.bunka.go.jp/ja/datas/cache/images/2022/08/15/500x343_2ae395417f98b42be3d881be00011165_73468e9951f4c2c51436e0d8cde53bd3f93a6b1b.jpeg"
  },
  {
    "pidx": "2521",
    "jhno": "53",
    "pno": "23",
    "url": "https://japan-heritage.bunka.go.jp/ja/culturalproperties/result/3514/",
    "status": "未指定",
    "name": "菊池川流域の酒造り　千代の園酒造",
    "yomi": "",
    "spot": "熊本県山鹿市熊本県和水町",
    "lat": "33.011066",
    "lng": "130.687688",
    "zoom": "17",
    "image": "https://japan-heritage.bunka.go.jp/ja/datas/cache/images/2022/08/15/500x343_2ae395417f98b42be3d881be00011165_a4cbac7c0fcdbe4a7f35e7094a47b2a66ee1dac5.jpeg"
  },
  {
    "pidx": "2522",
    "jhno": "53",
    "pno": "24",
    "url": "https://japan-heritage.bunka.go.jp/ja/culturalproperties/result/3515/",
    "status": "未指定",
    "name": "菊池川流域の酒造り　花の香酒造",
    "yomi": "",
    "spot": "熊本県山鹿市熊本県和水町",
    "lat": "33.074809",
    "lng": "130.592761",
    "zoom": "17",
    "image": "https://japan-heritage.bunka.go.jp/ja/datas/images/2022/08/15/d69e128e0bdb1efbf9877cdfacfd4764048c63f3.jpeg"
  },
  {
    "pidx": "2523",
    "jhno": "53",
    "pno": "25",
    "url": "https://japan-heritage.bunka.go.jp/ja/culturalproperties/result/3516/",
    "status": "国重文（建造物）",
    "name": "八千代座",
    "yomi": "",
    "spot": "熊本県山鹿市熊本県和水町",
    "lat": "33.0168645",
    "lng": "130.6892981",
    "zoom": "17",
    "image": "https://japan-heritage.bunka.go.jp/ja/datas/cache/images/2022/08/15/500x343_2ae395417f98b42be3d881be00011165_9946d34d59e44f18684d3bd3bd7aa71657e9af67.jpeg"
  },
  {
    "pidx": "2524",
    "jhno": "53",
    "pno": "26",
    "url": "https://japan-heritage.bunka.go.jp/ja/culturalproperties/result/3517/",
    "status": "市指定（無形民俗）",
    "name": "大浜外嶋住吉神社年紀祭",
    "yomi": "",
    "spot": "熊本県玉名市",
    "lat": "32.89956199999999",
    "lng": "130.5464303",
    "zoom": "17",
    "image": "https://japan-heritage.bunka.go.jp/ja/datas/cache/images/2022/08/15/500x343_2ae395417f98b42be3d881be00011165_5d03670df10057c31c17ef7c24e2fe15a41168af.jpeg"
  },
  {
    "pidx": "2525",
    "jhno": "53",
    "pno": "27",
    "url": "https://japan-heritage.bunka.go.jp/ja/culturalproperties/result/3518/",
    "status": "未指定",
    "name": "七郎神大祭",
    "yomi": "",
    "spot": "熊本県和水町",
    "lat": "33.05758890000001",
    "lng": "130.5961194",
    "zoom": "17",
    "image": "https://japan-heritage.bunka.go.jp/ja/datas/cache/images/2022/08/15/500x343_2ae395417f98b42be3d881be00011165_4c572bad6d1e607731bbe15a7b58bc6241933611.jpeg"
  },
  {
    "pidx": "2526",
    "jhno": "53",
    "pno": "28",
    "url": "https://japan-heritage.bunka.go.jp/ja/culturalproperties/result/3519/",
    "status": "市指定（無形民俗）ほか",
    "name": "肥後神楽",
    "yomi": "",
    "spot": "熊本県玉名市熊本県山鹿市熊本県菊池市熊本県和水町",
    "lat": "33.073924",
    "lng": "130.8629133",
    "zoom": "17",
    "image": "https://japan-heritage.bunka.go.jp/ja/datas/cache/images/2022/08/15/500x343_2ae395417f98b42be3d881be00011165_242342df6b023d558b4a474fd6d531a9be54dbd5.jpeg"
  },
  {
    "pidx": "2527",
    "jhno": "53",
    "pno": "29",
    "url": "https://japan-heritage.bunka.go.jp/ja/culturalproperties/result/3520/",
    "status": "市指定（無形民俗）",
    "name": "長坂なれなれむすび踊り",
    "yomi": "",
    "spot": "熊本県山鹿市熊本県和水町",
    "lat": "32.990309",
    "lng": "130.7007401",
    "zoom": "17",
    "image": "https://japan-heritage.bunka.go.jp/ja/datas/cache/images/2022/08/15/500x343_2ae395417f98b42be3d881be00011165_51a525baec2ef75f54762aca29671ebc8fd3b786.jpeg"
  },
  {
    "pidx": "2528",
    "jhno": "53",
    "pno": "30",
    "url": "https://japan-heritage.bunka.go.jp/ja/culturalproperties/result/3521/",
    "status": "市指定（無形民俗）",
    "name": "玉祥寺このみや踊り",
    "yomi": "",
    "spot": "熊本県菊池市",
    "lat": "32.9866143",
    "lng": "130.8061972",
    "zoom": "17",
    "image": "https://japan-heritage.bunka.go.jp/ja/datas/cache/images/2022/08/15/500x343_2ae395417f98b42be3d881be00011165_e71c4e2b8aae5e9eaf2fc22b2d8f3cc0677bee7a.jpeg"
  },
  {
    "pidx": "2529",
    "jhno": "53",
    "pno": "31",
    "url": "https://japan-heritage.bunka.go.jp/ja/culturalproperties/result/3522/",
    "status": "未指定",
    "name": "阿佐古かせいどりうち",
    "yomi": "",
    "spot": "熊本県山鹿市熊本県和水町",
    "lat": "33.0446686",
    "lng": "130.7921917",
    "zoom": "17",
    "image": "https://japan-heritage.bunka.go.jp/ja/datas/cache/images/2022/08/15/500x343_2ae395417f98b42be3d881be00011165_82a62516deb9adf7afeedb45c25c56ca53891b5c.jpeg"
  },
  {
    "pidx": "2530",
    "jhno": "53",
    "pno": "32",
    "url": "https://japan-heritage.bunka.go.jp/ja/culturalproperties/result/3523/",
    "status": "県指定（無形民俗）",
    "name": "梅林天満宮流鏑馬",
    "yomi": "",
    "spot": "熊本県玉名市",
    "lat": "32.9339304",
    "lng": "130.588407",
    "zoom": "17",
    "image": "https://japan-heritage.bunka.go.jp/ja/datas/cache/images/2022/08/15/500x343_2ae395417f98b42be3d881be00011165_d40683ba14a18cd7713c369e36451fbba78b3f5f.jpeg"
  },
  {
    "pidx": "2531",
    "jhno": "53",
    "pno": "33",
    "url": "https://japan-heritage.bunka.go.jp/ja/culturalproperties/result/3524/",
    "status": "市指定（無形民俗）ほか",
    "name": "菊池川流域の雨乞い習俗（踊り）",
    "yomi": "",
    "spot": "熊本県玉名市熊本県山鹿市熊本県菊池市熊本県和水町",
    "lat": "32.91143261731668",
    "lng": "130.50551052593983",
    "zoom": "14",
    "image": "https://japan-heritage.bunka.go.jp/ja/datas/cache/images/2022/08/15/500x343_2ae395417f98b42be3d881be00011165_d157b882f16e11d5717d2562ea2801bd6f60c14d.jpeg"
  },
  {
    "pidx": "2532",
    "jhno": "53",
    "pno": "34",
    "url": "https://japan-heritage.bunka.go.jp/ja/culturalproperties/result/3525/",
    "status": "市指定（無形民俗）ほか",
    "name": "菊池川流域の雨乞い習俗（太鼓）",
    "yomi": "",
    "spot": "熊本県玉名市熊本県山鹿市熊本県菊池市熊本県和水町",
    "lat": "32.939362",
    "lng": "130.8124881",
    "zoom": "17",
    "image": "https://japan-heritage.bunka.go.jphttps://japan-heritage.bunka.go.jp/ja/files/images/home/noimage.jpg"
  },
  {
    "pidx": "2533",
    "jhno": "53",
    "pno": "35",
    "url": "https://japan-heritage.bunka.go.jp/ja/culturalproperties/result/3526/",
    "status": "市指定（無形民俗）ほか",
    "name": "菊池川流域の雨乞い習俗（仏像洗い）",
    "yomi": "",
    "spot": "熊本県玉名市熊本県山鹿市熊本県菊池市熊本県和水町",
    "lat": "32.9417769",
    "lng": "130.6474606",
    "zoom": "17",
    "image": "https://japan-heritage.bunka.go.jp/ja/datas/images/2022/08/15/3a6751d94ea33c342a2e97c8cb6fc700d29cfac8.jpeg"
  },
  {
    "pidx": "2534",
    "jhno": "53",
    "pno": "36",
    "url": "https://japan-heritage.bunka.go.jp/ja/culturalproperties/result/3527/",
    "status": "未指定",
    "name": "菊池の風鎮祭",
    "yomi": "",
    "spot": "熊本県菊池市",
    "lat": "32.96311553986008",
    "lng": "130.8045055236232",
    "zoom": "17",
    "image": "https://japan-heritage.bunka.go.jp/ja/datas/images/2022/08/15/c4c9fa7b86ff9f7493dd6fdcdfe44145b87f0efb.jpeg"
  },
  {
    "pidx": "2535",
    "jhno": "53",
    "pno": "37",
    "url": "https://japan-heritage.bunka.go.jp/ja/culturalproperties/result/3528/",
    "status": "未指定",
    "name": "菊池の土阿弥陀",
    "yomi": "",
    "spot": "熊本県菊池市",
    "lat": "32.97195016150812",
    "lng": "130.82063600000004",
    "zoom": "18",
    "image": "https://japan-heritage.bunka.go.jp/ja/datas/cache/images/2022/08/15/500x343_2ae395417f98b42be3d881be00011165_d1f65b9509e29db7ed2fe717c8c3b0db72bb1db9.jpeg"
  },
  {
    "pidx": "2536",
    "jhno": "53",
    "pno": "38",
    "url": "https://japan-heritage.bunka.go.jp/ja/culturalproperties/result/3529/",
    "status": "未指定",
    "name": "菊池の馬作り",
    "yomi": "",
    "spot": "熊本県菊池市",
    "lat": "33.03997290209306",
    "lng": "130.843392",
    "zoom": "16",
    "image": "https://japan-heritage.bunka.go.jp/ja/datas/images/2022/08/15/9b983ce23b6c5b7ad7002d0d5dd2a89767d6ad57.jpeg"
  },
  {
    "pidx": "2537",
    "jhno": "53",
    "pno": "39",
    "url": "https://japan-heritage.bunka.go.jp/ja/culturalproperties/result/3530/",
    "status": "未指定",
    "name": "このしろの丸ずし",
    "yomi": "",
    "spot": "熊本県玉名市熊本県山鹿市",
    "lat": "33.01157179999999",
    "lng": "130.6880859",
    "zoom": "17",
    "image": "https://japan-heritage.bunka.go.jp/ja/datas/cache/images/2022/08/15/500x343_2ae395417f98b42be3d881be00011165_d69e128e0bdb1efbf9877cdfacfd4764048c63f3.jpeg"
  },
  {
    "pidx": "2538",
    "jhno": "53",
    "pno": "40",
    "url": "https://japan-heritage.bunka.go.jp/ja/culturalproperties/result/3531/",
    "status": "未指定",
    "name": "ガネめし",
    "yomi": "",
    "spot": "熊本県山鹿市熊本県和水町",
    "lat": "32.96905916199644",
    "lng": "130.59624699999995",
    "zoom": "18",
    "image": "https://japan-heritage.bunka.go.jp/ja/datas/cache/images/2022/08/15/500x343_2ae395417f98b42be3d881be00011165_aa23c5b85d68bef266c42d6ad65dc96f9bb6ac61.jpeg"
  },
  {
    "pidx": "2539",
    "jhno": "53",
    "pno": "41",
    "url": "https://japan-heritage.bunka.go.jp/ja/culturalproperties/result/3532/",
    "status": "未指定",
    "name": "赤酒",
    "yomi": "",
    "spot": "熊本県山鹿市熊本県和水町",
    "lat": "33.011066",
    "lng": "130.687688",
    "zoom": "17",
    "image": "https://japan-heritage.bunka.go.jp/ja/datas/cache/images/2022/08/15/500x343_2ae395417f98b42be3d881be00011165_a965e7be4588f79ff99f31047696b0925475285f.jpeg"
  }
]