pidx,jhno,pno,url,status,name,yomi,spot,lat,lng,zoom,image
2940,64,1,https://japan-heritage.bunka.go.jp/ja/culturalproperties/result/3933/,国史跡,鬼城山（鬼ノ城）,きのじょうさん（きのじょう）,岡山県総社市,34.72735339022505,133.75788649332958,16,https://japan-heritage.bunka.go.jp/ja/datas/cache/images/2022/08/15/500x343_2ae395417f98b42be3d881be00011165_c598ffe0b12cf56cface170a03efaf47e4b6fc74.jpeg
2941,64,2,https://japan-heritage.bunka.go.jp/ja/culturalproperties/result/3934/,市重文 （工芸品）,鬼の釜,,岡山県総社市,34.724619178287874,133.7528069429635,16,https://japan-heritage.bunka.go.jp/ja/datas/cache/images/2022/08/15/500x343_2ae395417f98b42be3d881be00011165_26db48d4e522b8ee3bc39d8470cbe1764f4725b5.jpeg
2942,64,3,https://japan-heritage.bunka.go.jp/ja/culturalproperties/result/3935/,国史跡,楯築遺跡,たてつきいせき,岡山県倉敷市,34.665099822572344,133.82168695390703,16,https://japan-heritage.bunka.go.jp/ja/datas/cache/images/2022/08/15/500x343_2ae395417f98b42be3d881be00011165_9636a3cac11ce22d35e9094a75553e27c845bb0d.jpeg
2943,64,4,https://japan-heritage.bunka.go.jp/ja/culturalproperties/result/3936/,国重文 （考古資料）,楯築神社の旋帯文石,たてつきじんじゃのせんたいもんせき,岡山県倉敷市,34.66497963859253,133.82124967696177,16,https://japan-heritage.bunka.go.jp/ja/datas/cache/images/2022/12/14/500x343_2ae395417f98b42be3d881be00011165_9fcaf70bda0ef643c02e076a5638ae8405c70466.jpg
2944,64,5,https://japan-heritage.bunka.go.jp/ja/culturalproperties/result/3937/,未指定,矢置岩と矢立の神事,,岡山県岡山市,34.67240565969957,133.84669789131544,16,https://japan-heritage.bunka.go.jp/ja/datas/cache/images/2022/08/15/500x343_2ae395417f98b42be3d881be00011165_676d4f9350dcc29be8fd29e5cae480ff31951903.jpeg
2945,64,6,https://japan-heritage.bunka.go.jp/ja/culturalproperties/result/3938/,未指定,矢喰宮,,岡山県岡山市,34.693867135060145,133.79796833277067,16,https://japan-heritage.bunka.go.jp/ja/datas/cache/images/2022/08/15/500x343_2ae395417f98b42be3d881be00011165_9c43d2391d7ba4f86abfc713b1ca25ac390994b4.jpeg
2946,64,7,https://japan-heritage.bunka.go.jp/ja/culturalproperties/result/3939/,未指定,鯉喰神社 （鯉喰神社遺跡）,,岡山県倉敷市,34.66920643402766,133.81600269787077,16,https://japan-heritage.bunka.go.jp/ja/datas/cache/images/2022/08/15/500x343_2ae395417f98b42be3d881be00011165_a5d83a11cc1fd1f1123b4ea2120796b8b4e1b4c9.jpeg
2947,64,8,https://japan-heritage.bunka.go.jp/ja/culturalproperties/result/3940/,未指定,血吸川,,岡山県岡山市岡山県総社市,34.71338686572966,133.78185942551727,17,https://japan-heritage.bunka.go.jp/ja/datas/cache/images/2022/08/15/500x343_2ae395417f98b42be3d881be00011165_5d2985de0817149f7bdea1c0b90a53335b1e91e9.jpeg
2948,64,9,https://japan-heritage.bunka.go.jp/ja/culturalproperties/result/3941/,未指定,吉備津宮勧進帳,,岡山県岡山市,34.66958383980728,133.93215181368487,17,https://japan-heritage.bunka.go.jp/ja/datas/cache/images/2022/08/15/500x343_2ae395417f98b42be3d881be00011165_426d21a7a607ba6895930a1faf4ed585f7ef17b0.jpeg
2949,64,10,https://japan-heritage.bunka.go.jp/ja/culturalproperties/result/3942/,未指定,備中国大吉備津宮略記,,岡山県岡山市,34.6630675059477,133.93369140165942,18,https://japan-heritage.bunka.go.jp/ja/datas/cache/images/2022/08/15/500x343_2ae395417f98b42be3d881be00011165_43a3cd2f9f0ab7aacca5c0b4d0b1b1714f2fad82.jpeg
2950,64,11,https://japan-heritage.bunka.go.jp/ja/culturalproperties/result/3943/,未指定,吉備の中山,,岡山県岡山市,34.67029859115152,133.8493949728845,16,https://japan-heritage.bunka.go.jp/ja/datas/cache/images/2022/08/15/500x343_2ae395417f98b42be3d881be00011165_890b2707ca4bf3cceec2e92a327cb6bfe60f9235.jpeg
2951,64,12,https://japan-heritage.bunka.go.jp/ja/culturalproperties/result/3944/,国宝,吉備津神社,きびつじんじゃ,岡山県岡山市,34.671008701710804,133.84972220238433,18,https://japan-heritage.bunka.go.jp/ja/datas/cache/images/2022/08/15/500x343_2ae395417f98b42be3d881be00011165_5356a691a1d2f529785f1821e15a4bd66a6430c9.jpeg
2952,64,13,https://japan-heritage.bunka.go.jp/ja/culturalproperties/result/3945/,国重文,吉備津神社御釜殿,きびつじんじゃおかまでん,岡山県岡山市,34.67111427388802,133.84972220238433,18,https://japan-heritage.bunka.go.jp/ja/datas/cache/images/2022/08/15/500x343_2ae395417f98b42be3d881be00011165_0e6d1208e6a995f6408ef9cae9f62eca40b915b0.jpeg
2953,64,14,https://japan-heritage.bunka.go.jp/ja/culturalproperties/result/3946/,未指定,鳴釜神事,,岡山県岡山市,34.67111427388802,133.84972220238433,18,https://japan-heritage.bunka.go.jp/ja/datas/cache/images/2022/08/15/500x343_2ae395417f98b42be3d881be00011165_73ac30be14e6a8ed3b17a02001a3fab525ad05b6.jpeg
2954,64,15,https://japan-heritage.bunka.go.jp/ja/culturalproperties/result/3947/,未指定,吉備津神社境内古図,,岡山県岡山市,34.66908305955062,133.93286408735582,18,https://japan-heritage.bunka.go.jp/ja/datas/cache/images/2022/08/15/500x343_2ae395417f98b42be3d881be00011165_5952e59ff2e0d9288349ec7e49a5d1dbdf19e9e5.jpeg
2955,64,16,https://japan-heritage.bunka.go.jp/ja/culturalproperties/result/3948/,未指定,吉備津神社の鬼面,,岡山県岡山市,34.67120036200673,133.8498088235542,18,https://japan-heritage.bunka.go.jp/ja/datas/cache/images/2022/08/15/500x343_2ae395417f98b42be3d881be00011165_263b4818b9ad147a3d06f80c6f902928329388d6.jpeg
2956,64,17,https://japan-heritage.bunka.go.jp/ja/culturalproperties/result/3949/,県重文（本殿ほか）ほか,吉備津彦神社,,岡山県岡山市,34.67723584877126,133.86309094596038,18,https://japan-heritage.bunka.go.jp/ja/datas/cache/images/2022/08/15/500x343_2ae395417f98b42be3d881be00011165_a1cbc46bfa8db171bc534f0aa9a51274eeaf9dc6.jpeg
2957,64,18,https://japan-heritage.bunka.go.jp/ja/culturalproperties/result/3950/,国重文 （考古資料）,特殊器台,とくしゅきだい,岡山県岡山市,34.6688645905475,133.93297735398028,18,https://japan-heritage.bunka.go.jp/ja/datas/cache/images/2022/08/15/500x343_2ae395417f98b42be3d881be00011165_5cce003b06ed5f2a3f0364329d62fa520b4479fe.jpeg
2958,64,19,https://japan-heritage.bunka.go.jp/ja/culturalproperties/result/3951/,国史跡,造山古墳 第一、二、三、四、五、六古墳,つくりやまこふん,岡山県岡山市,34.674380476571166,133.8021231758844,17,https://japan-heritage.bunka.go.jp/ja/datas/cache/images/2022/08/15/500x343_2ae395417f98b42be3d881be00011165_ce81c16c82d66b60001d66c810021d241b76ecba.jpeg
2959,64,20,https://japan-heritage.bunka.go.jp/ja/culturalproperties/result/3952/,国史跡,作山古墳第一古墳,つくりやまこふんだいいちこふん,岡山県総社市,34.66541613118285,133.76775033885428,17,https://japan-heritage.bunka.go.jp/ja/datas/cache/images/2022/08/15/500x343_2ae395417f98b42be3d881be00011165_f8af151fc05dcdf0a46543fa9ace961b61746a4b.jpeg
2960,64,21,https://japan-heritage.bunka.go.jp/ja/culturalproperties/result/3953/,国史跡,両宮山古墳,りょうぐうざんこふん,岡山県赤磐市,34.740547101146184,134.00068339441168,17,https://japan-heritage.bunka.go.jp/ja/datas/cache/images/2022/08/15/500x343_2ae395417f98b42be3d881be00011165_43da775d6a8ca48bacfdd3f24ab4a959340dedd3.jpeg
2961,64,22,https://japan-heritage.bunka.go.jp/ja/culturalproperties/result/3954/,国史跡,こうもり塚古墳,こうもりづかこふん,岡山県総社市,34.667662147585716,133.78394122705026,17,https://japan-heritage.bunka.go.jp/ja/datas/cache/images/2022/08/15/500x343_2ae395417f98b42be3d881be00011165_de7162e5ca4076cb6035117902e8f7a8df777db0.jpeg
2962,64,23,https://japan-heritage.bunka.go.jp/ja/culturalproperties/result/3955/,国史跡,牟佐大塚古墳,むさおおつかこふん,岡山県岡山市,34.72557406389332,133.97589456357525,18,https://japan-heritage.bunka.go.jp/ja/datas/cache/images/2022/08/15/500x343_2ae395417f98b42be3d881be00011165_dbb60f7df64e499d209663588fade5951b16878f.jpeg
2963,64,24,https://japan-heritage.bunka.go.jp/ja/culturalproperties/result/3956/,国史跡,箭田大塚古墳,やたおおつかこふん,岡山県倉敷市,34.63733706803261,133.6772141721766,16,https://japan-heritage.bunka.go.jp/ja/datas/cache/images/2022/08/15/500x343_2ae395417f98b42be3d881be00011165_33d2375bff4c137f2a32a1c891fe4152822f82f5.jpeg
2964,64,25,https://japan-heritage.bunka.go.jp/ja/culturalproperties/result/3957/,未指定,上東遺跡出土の桃の種,,岡山県岡山市,34.66542085642213,133.85030248157,16,https://japan-heritage.bunka.go.jp/ja/datas/cache/images/2022/08/15/500x343_2ae395417f98b42be3d881be00011165_3c5294df6e63f375b280322e9eb1daa06ec5ed70.jpeg
2965,64,26,https://japan-heritage.bunka.go.jp/ja/culturalproperties/result/3958/,未指定,岡山の桃,,岡山県岡山市岡山県倉敷市岡山県総社市岡山県赤磐市,,,,
2966,64,27,https://japan-heritage.bunka.go.jp/ja/culturalproperties/result/3959/,未指定,きびだんご,,岡山県岡山市岡山県倉敷市岡山県総社市,,,,
2967,64,28,https://japan-heritage.bunka.go.jp/ja/culturalproperties/result/3960/,未指定（遺跡地）,白山神社の首塚,,岡山県岡山市,34.666220690063824,133.85192950278108,12,https://japan-heritage.bunka.go.jp/ja/datas/cache/images/2022/08/15/500x343_2ae395417f98b42be3d881be00011165_919c56bf847e3e662b407dcf766f8ed7b2d6c836.png
