pidx,jhno,pno,url,status,name,yomi,spot,lat,lng,zoom,image
3232,72,1,https://japan-heritage.bunka.go.jp/ja/culturalproperties/result/4220/,国重伝建,名古屋市有松伝統的建造物群保存地区,,愛知県名古屋市,35.06680555555555,136.97058333333337,15,https://japan-heritage.bunka.go.jp/ja/datas/cache/images/2022/08/15/500x343_2ae395417f98b42be3d881be00011165_98244395e9224c4226bcc35b3c9c5578fbbe4608.jpeg
3233,72,2,https://japan-heritage.bunka.go.jp/ja/culturalproperties/result/4221/,県有形,服部家住宅（井桁屋）,,愛知県名古屋市,35.06684929999999,136.97085400000003,15,https://japan-heritage.bunka.go.jp/ja/datas/cache/images/2022/08/15/500x343_2ae395417f98b42be3d881be00011165_a4ccd13cf4f0a59480150b3627e9e70a116604e0.jpeg
3234,72,3,https://japan-heritage.bunka.go.jp/ja/culturalproperties/result/4222/,県有形,服部幸平家住宅倉,,愛知県名古屋市,35.06652370000003,136.97135290000006,15,https://japan-heritage.bunka.go.jp/ja/datas/cache/images/2022/08/15/500x343_2ae395417f98b42be3d881be00011165_b4c1b23d71b46e18ac8d4f56f91dcc587c555864.jpeg
3235,72,4,https://japan-heritage.bunka.go.jp/ja/culturalproperties/result/4223/,未指定,服部良也家住宅,,愛知県名古屋市,35.06652370000003,136.97135290000006,15,https://japan-heritage.bunka.go.jp/ja/datas/cache/images/2022/08/15/500x343_2ae395417f98b42be3d881be00011165_556d2a3e6237518a791e2aabf3f2753ca5eae395.jpeg
3236,72,5,https://japan-heritage.bunka.go.jp/ja/culturalproperties/result/4224/,市有形,竹田家住宅（竹田嘉兵衛商店）,,愛知県名古屋市,35.0677709,136.96877949999998,15,https://japan-heritage.bunka.go.jp/ja/datas/cache/images/2022/08/15/500x343_2ae395417f98b42be3d881be00011165_23b1ba0716033b3870689c908a36a3f2023dfeca.jpeg
3237,72,6,https://japan-heritage.bunka.go.jp/ja/culturalproperties/result/4225/,市有形,竹田家茶室 栽松庵,,愛知県名古屋市,35.0677709,136.96877949999998,15,https://japan-heritage.bunka.go.jp/ja/datas/cache/images/2022/08/15/500x343_2ae395417f98b42be3d881be00011165_546b2742f54cfd6bd36d9fdccd72064bfeca496c.jpeg
3238,72,7,https://japan-heritage.bunka.go.jp/ja/culturalproperties/result/4226/,市有形,小塚家住宅,,愛知県名古屋市,35.06826659999998,136.9672812,15,https://japan-heritage.bunka.go.jp/ja/datas/cache/images/2022/08/15/500x343_2ae395417f98b42be3d881be00011165_d1af98b9e45bf59af80f1e2c6ad874f3ab6d02d7.jpeg
3239,72,8,https://japan-heritage.bunka.go.jp/ja/culturalproperties/result/4227/,市有形,岡家住宅,,愛知県名古屋市,35.06813600000002,136.96772099999998,15,https://japan-heritage.bunka.go.jp/ja/datas/cache/images/2022/08/15/500x343_2ae395417f98b42be3d881be00011165_2f87b146588761649f716eb4f9e51ac3a386ad28.jpeg
3240,72,9,https://japan-heritage.bunka.go.jp/ja/culturalproperties/result/4228/,未指定（市都市景観保存樹）,都市景観保存樹 クロガネモチ,,愛知県名古屋市,35.06684929999999,136.97085400000003,15,https://japan-heritage.bunka.go.jp/ja/datas/cache/images/2022/08/15/500x343_2ae395417f98b42be3d881be00011165_a3c97aa38b1bee1a4d1b6b8a2a99ce3b89fe9128.jpeg
3241,72,10,https://japan-heritage.bunka.go.jp/ja/culturalproperties/result/4229/,国登録有形,中濱家住宅（中濱商店）,,愛知県名古屋市,35.06730520000001,136.97042970000007,15,https://japan-heritage.bunka.go.jp/ja/datas/cache/images/2022/08/15/500x343_2ae395417f98b42be3d881be00011165_2abb289789ddd6b0e82bff895281ea6a6ec4223c.jpeg
3242,72,11,https://japan-heritage.bunka.go.jp/ja/culturalproperties/result/4230/,国登録有形,棚橋家住宅,,愛知県名古屋市,35.0663854,136.97073780000005,15,https://japan-heritage.bunka.go.jp/ja/datas/cache/images/2022/08/15/500x343_2ae395417f98b42be3d881be00011165_7354d55fc03d20e478a038ab768cd4e02e0e83bb.jpeg
3243,72,12,https://japan-heritage.bunka.go.jp/ja/culturalproperties/result/4231/,市無形民俗,有松祭りの山車行事（有松天満社秋季大祭）神功皇后車（西町山車庫）,,愛知県名古屋市,35.068525600000015,136.96715970000002,15,https://japan-heritage.bunka.go.jp/ja/datas/cache/images/2022/08/15/500x343_2ae395417f98b42be3d881be00011165_de3260c327fc02b63d7085dd527f3b7b1764eae9.jpeg
3244,72,13,https://japan-heritage.bunka.go.jp/ja/culturalproperties/result/4232/,市無形民俗,有松祭りの山車行事（有松天満社秋季大祭）,,愛知県名古屋市,35.067743400000005,136.96960949999993,15,https://japan-heritage.bunka.go.jp/ja/datas/cache/images/2022/08/15/500x343_2ae395417f98b42be3d881be00011165_d1155becc4ebf3293c946a5fcff5004772e19e4e.jpeg
3245,72,14,https://japan-heritage.bunka.go.jp/ja/culturalproperties/result/4233/,市無形民俗,有松祭りの山車行事（有松天満社秋季大祭）布袋車（東町山車庫）,,愛知県名古屋市,35.06591490000001,136.97148719999996,15,https://japan-heritage.bunka.go.jp/ja/datas/cache/images/2022/08/15/500x343_2ae395417f98b42be3d881be00011165_bd2cdae1af754f44ccb6dd1b615fc8bec8aeb8ec.jpeg
3246,72,15,https://japan-heritage.bunka.go.jp/ja/culturalproperties/result/4234/,未指定,有松山車会館,,愛知県名古屋市,35.06623670000002,136.97186829999998,15,https://japan-heritage.bunka.go.jp/ja/datas/cache/images/2022/08/15/500x343_2ae395417f98b42be3d881be00011165_7971bbbd20aaa0fb60c1ed09a8c8f93c617167d6.jpeg
3247,72,16,https://japan-heritage.bunka.go.jp/ja/culturalproperties/result/4235/,未指定,山田家住宅（旧山田薬局）,,愛知県名古屋市,35.06753550000002,136.96967519999998,15,https://japan-heritage.bunka.go.jp/ja/datas/cache/images/2022/08/15/500x343_2ae395417f98b42be3d881be00011165_776103752553d3d148630f48d729e00ee1fe494c.jpeg
3248,72,17,https://japan-heritage.bunka.go.jp/ja/culturalproperties/result/4236/,未指定,近藤家住宅,,愛知県名古屋市,35.068497399999984,136.9675595,15,https://japan-heritage.bunka.go.jp/ja/datas/cache/images/2022/08/15/500x343_2ae395417f98b42be3d881be00011165_4d8b3eea63e2382c1cf58100f06e4977d4cbaab9.jpeg
3249,72,18,https://japan-heritage.bunka.go.jp/ja/culturalproperties/result/4237/,未指定,旧竹田庄九郎家住宅,,愛知県名古屋市,35.06759620000001,136.96889190000002,15,https://japan-heritage.bunka.go.jp/ja/datas/cache/images/2022/08/15/500x343_2ae395417f98b42be3d881be00011165_385c218966b453ea6194a71a6e1b97dc9d82b3b3.jpeg
3250,72,19,https://japan-heritage.bunka.go.jp/ja/culturalproperties/result/4238/,未指定,神谷家住宅（神半）,,愛知県名古屋市,35.0674701,136.97027479999997,15,https://japan-heritage.bunka.go.jp/ja/datas/cache/images/2022/08/15/500x343_2ae395417f98b42be3d881be00011165_ae7a00f75d630de759eb9999e9447f8f3ee4e788.jpeg
3251,72,20,https://japan-heritage.bunka.go.jp/ja/culturalproperties/result/4239/,未指定,服部家住宅（いげ十）,,愛知県名古屋市,35.066356199999994,136.97195209999995,15,https://japan-heritage.bunka.go.jp/ja/datas/cache/images/2022/08/15/500x343_2ae395417f98b42be3d881be00011165_c82501fa9fa2c8c22db88f5e45a595704c61e4ba.jpeg
3252,72,21,https://japan-heritage.bunka.go.jp/ja/culturalproperties/result/4240/,未指定（国指定伝統的工芸品）,有松・鳴海絞会館と絞りの資料,,愛知県名古屋市,35.06639300000002,136.97101210000005,15,https://japan-heritage.bunka.go.jp/ja/datas/cache/images/2022/08/15/500x343_2ae395417f98b42be3d881be00011165_16e48de79895a369d409c81d7c20d07e1afc194e.jpeg
3253,72,22,https://japan-heritage.bunka.go.jp/ja/culturalproperties/result/4241/,未指定,祇園寺、仏足石、光明皇后恭仏跡歌碑、三十三観音、十六羅漢像,,愛知県名古屋市,35.06889779999998,136.9670949,15,https://japan-heritage.bunka.go.jp/ja/datas/cache/images/2022/08/15/500x343_2ae395417f98b42be3d881be00011165_615e95a98c1fc1bd1801f35b7ceb37abd96f7cc4.jpeg
3254,72,23,https://japan-heritage.bunka.go.jp/ja/culturalproperties/result/4242/,未指定,西町年行司,,愛知県名古屋市,35.06867119999999,136.96719919999998,15,https://japan-heritage.bunka.go.jp/ja/datas/cache/images/2022/08/15/500x343_2ae395417f98b42be3d881be00011165_85dcd2b3da198ce6c029d904adb6a3aebd64dacf.jpeg
3255,72,24,https://japan-heritage.bunka.go.jp/ja/culturalproperties/result/4243/,未指定,延命地蔵尊,,愛知県名古屋市,35.06540809999999,136.97267609999994,15,https://japan-heritage.bunka.go.jp/ja/datas/cache/images/2022/08/15/500x343_2ae395417f98b42be3d881be00011165_0e4a473e946ef1963267c2beb8d19dab114c0026.jpeg
3256,72,25,https://japan-heritage.bunka.go.jp/ja/culturalproperties/result/4244/,未指定（国重伝建）,竹田庄九郎碑 鈴木金蔵碑,,愛知県名古屋市,35.06601659999999,136.97093519999999,15,https://japan-heritage.bunka.go.jp/ja/datas/cache/images/2022/08/15/500x343_2ae395417f98b42be3d881be00011165_ca6720a2abb099152f5a18cf6815e279d01eea5e.jpeg
3257,72,26,https://japan-heritage.bunka.go.jp/ja/culturalproperties/result/4245/,未指定,有松小学校飾り門,,愛知県名古屋市,35.065872200000015,136.97022430000004,15,https://japan-heritage.bunka.go.jp/ja/datas/cache/images/2022/08/15/500x343_2ae395417f98b42be3d881be00011165_615c60f5164df0a6a222b23d6477c295e3bbad46.jpeg
3258,72,27,https://japan-heritage.bunka.go.jp/ja/culturalproperties/result/4246/,未指定,勝海舟の掛軸,,愛知県名古屋市,35.0677709,136.96877949999998,15,https://japan-heritage.bunka.go.jp/ja/datas/cache/images/2022/08/15/500x343_2ae395417f98b42be3d881be00011165_cc56fda300e5ea6c1da8bb9258204b1002e42a7c.jpeg
3259,72,28,https://japan-heritage.bunka.go.jp/ja/culturalproperties/result/4247/,未指定,各地の博覧会の受賞表彰状,,愛知県名古屋市,,,,
3260,72,29,https://japan-heritage.bunka.go.jp/ja/culturalproperties/result/4248/,未指定,頼山陽自筆の漢詩の扇,,愛知県名古屋市,35.06639300000002,136.97101210000005,15,https://japan-heritage.bunka.go.jp/ja/datas/cache/images/2022/08/15/500x343_2ae395417f98b42be3d881be00011165_811e3c37c9296191f472bd982b94fa3c847f6182.jpeg
3261,72,30,https://japan-heritage.bunka.go.jp/ja/culturalproperties/result/4249/,未指定,服部家の嫁入り駕籠,,愛知県名古屋市,35.06684929999999,136.97085400000003,15,https://japan-heritage.bunka.go.jp/ja/datas/cache/images/2022/08/15/500x343_2ae395417f98b42be3d881be00011165_48ed9b518326489c6e86338b6df1410d4022e35d.jpeg
3262,72,31,https://japan-heritage.bunka.go.jp/ja/culturalproperties/result/4250/,未指定,有松天満社,,愛知県名古屋市,35.0708906,136.96822680000002,15,https://japan-heritage.bunka.go.jp/ja/datas/cache/images/2022/08/15/500x343_2ae395417f98b42be3d881be00011165_fe5f52189cded030f25967a11e4261475b2a6ed1.jpeg
3263,72,32,https://japan-heritage.bunka.go.jp/ja/culturalproperties/result/4251/,未指定,虹橋,,愛知県名古屋市,35.07083930000003,136.9682894,15,https://japan-heritage.bunka.go.jp/ja/datas/cache/images/2022/08/15/500x343_2ae395417f98b42be3d881be00011165_bd5edd767c174e937dc7d49c3b82dc78b0c3d52b.jpeg
3264,72,33,https://japan-heritage.bunka.go.jp/ja/culturalproperties/result/4252/,未指定,有松天満社文嶺講,,愛知県名古屋市,,,,
3265,72,34,https://japan-heritage.bunka.go.jp/ja/culturalproperties/result/4253/,未指定,弘法堂,,愛知県名古屋市,35.067190700000026,136.96720870000001,15,https://japan-heritage.bunka.go.jp/ja/datas/cache/images/2022/08/15/500x343_2ae395417f98b42be3d881be00011165_d7abe59e51d62efd2641b3728ff4005ad91e5dfd.jpeg
3266,72,35,https://japan-heritage.bunka.go.jp/ja/culturalproperties/result/4254/,未指定,中町地蔵堂,,愛知県名古屋市,35.06689359999997,136.96915349999995,15,https://japan-heritage.bunka.go.jp/ja/datas/cache/images/2022/08/15/500x343_2ae395417f98b42be3d881be00011165_50fb5846c3eb62561cce56ca8bf9573afcfd3701.jpeg
3267,72,36,https://japan-heritage.bunka.go.jp/ja/culturalproperties/result/4255/,未指定,秋葉五社,,愛知県名古屋市,35.06690400000001,136.96909749999998,15,https://japan-heritage.bunka.go.jp/ja/datas/cache/images/2022/08/15/500x343_2ae395417f98b42be3d881be00011165_cfaf07cd27ff320a96212f1657c321733d183005.jpeg
3268,72,37,https://japan-heritage.bunka.go.jp/ja/culturalproperties/result/4256/,未指定,東海道・有松の歌碑,,愛知県名古屋市,35.068997600000024,136.96696210000005,15,https://japan-heritage.bunka.go.jp/ja/datas/cache/images/2022/08/15/500x343_2ae395417f98b42be3d881be00011165_f74833d39192ebe24148605b45b9664391e9fafb.jpeg
3269,72,38,https://japan-heritage.bunka.go.jp/ja/culturalproperties/result/4257/,未指定,有松一里塚,,愛知県名古屋市,35.06903949999999,136.96651499999996,15,https://japan-heritage.bunka.go.jp/ja/datas/cache/images/2022/08/15/500x343_2ae395417f98b42be3d881be00011165_80b41147ce4e1c0ba4f426949b320d3d1cd234ee.jpeg
3270,72,39,https://japan-heritage.bunka.go.jp/ja/culturalproperties/result/4258/,未指定,東海道,,,,,,
3271,72,40,https://japan-heritage.bunka.go.jp/ja/culturalproperties/result/4259/,未指定,長坂道,,,,,,
3272,72,41,https://japan-heritage.bunka.go.jp/ja/culturalproperties/result/4260/,未指定,有松天満社切通しと常夜燈,,愛知県名古屋市,35.0685367,136.96740469999997,15,https://japan-heritage.bunka.go.jp/ja/datas/cache/images/2022/08/15/500x343_2ae395417f98b42be3d881be00011165_a0c182adf157d2d2b7141ae7c6fe16367e540fa0.jpeg
3273,72,42,https://japan-heritage.bunka.go.jp/ja/culturalproperties/result/4261/,未指定,藍染川（手越川）,,,,,,
3274,72,43,https://japan-heritage.bunka.go.jp/ja/culturalproperties/result/4262/,未指定（国指定伝統的工芸品）,有松・鳴海絞の製造技術及び製品,,,,,,
