pidx,jhno,pno,url,status,name,yomi,spot,lat,lng,zoom,image
241,9,1,https://japan-heritage.bunka.go.jp/ja/culturalproperties/result/443/,未指定,黄檗山萬福寺門前の「駒蹄影園跡碑」,,京都府宇治市,34.913950142637,135.80476490187198,19,https://japan-heritage.bunka.go.jp/ja/datas/cache/images/2022/08/10/500x343_2ae395417f98b42be3d881be00011165_7a7f5053e8b717eb6ea43202e16965896ed384ea.jpg
242,9,2,https://japan-heritage.bunka.go.jp/ja/culturalproperties/result/445/,国重要文化的景観,「奥ノ山」茶園,「おくのやま」ちゃえん,京都府宇治市,34.88660639854748,135.80469631163942,18,https://japan-heritage.bunka.go.jp/ja/datas/cache/images/2022/08/10/500x343_2ae395417f98b42be3d881be00011165_da164fb32ffba337b6de1293ade1df6a931e236c.jpg
243,9,3,https://japan-heritage.bunka.go.jp/ja/culturalproperties/result/447/,国重要文化的景観、府指定名勝、府文化財環境保全地区、市指定有形文化財,興聖寺,こうしょうじ,京都府宇治市,34.8900269,135.81369440000003,18,https://japan-heritage.bunka.go.jp/ja/datas/cache/images/2022/08/10/500x343_2ae395417f98b42be3d881be00011165_a970ae51fa12709997302ab2bff749dbacb33e1e.jpg
244,9,4,https://japan-heritage.bunka.go.jp/ja/culturalproperties/result/449/,国重要文化的景観,茶陶「朝日焼」,ちゃとう「あさひやき」,京都府宇治市,34.88996089999999,135.81060690000004,19,https://japan-heritage.bunka.go.jp/ja/datas/cache/images/2022/08/10/500x343_2ae395417f98b42be3d881be00011165_2621071433461204b4be3e0742667041f3f7ddd8.jpg
245,9,5,https://japan-heritage.bunka.go.jp/ja/culturalproperties/result/451/,国重要文化的景観,白川地区の茶畑,しらかわちくのちゃばたけ,京都府宇治市,,,,
246,9,6,https://japan-heritage.bunka.go.jp/ja/culturalproperties/result/453/,国重要文化的景観,中宇治の街並み,なかうじのまちなみ,京都府宇治市,,,,
247,9,7,https://japan-heritage.bunka.go.jp/ja/culturalproperties/result/455/,国重要文化的景観、重文(浮島十三重塔),宇治川,うじがわ,京都府宇治市,,,,
248,9,8,https://japan-heritage.bunka.go.jp/ja/culturalproperties/result/457/,国重要文化的景観、重文(宇治橋断碑),宇治橋,うじばし,京都府宇治市,34.892943500000015,135.80623439999997,19,https://japan-heritage.bunka.go.jp/ja/datas/cache/images/2022/08/10/500x343_2ae395417f98b42be3d881be00011165_bedaa7e7df040f12150ec817419a32ac24f6096f.jpg
249,9,9,https://japan-heritage.bunka.go.jp/ja/culturalproperties/result/459/,国重要文化的景観,通圓茶屋,つうえんちゃや,京都府宇治市,34.89328230000004,135.80726639999997,20,https://japan-heritage.bunka.go.jp/ja/datas/cache/images/2022/08/10/500x343_2ae395417f98b42be3d881be00011165_4fef2b9748efa3cac134df9a5732b5615aae49a1.jpg
250,9,10,https://japan-heritage.bunka.go.jp/ja/culturalproperties/result/461/,国重要文化的景観、重文(宇治橋断碑、浮島十三重塔),橋寺放生院,はしでらほうじょういん,京都府宇治市,34.89326300000002,135.807953,20,https://japan-heritage.bunka.go.jp/ja/datas/cache/images/2022/08/10/500x343_2ae395417f98b42be3d881be00011165_f46cdd9951fb23d7ba23fa2aab7fae082f4c1ae5.jpg
251,9,11,https://japan-heritage.bunka.go.jp/ja/culturalproperties/result/463/,重文(大雄宝殿、紙本著色隠元和尚像など多数)境内は府史跡,黄檗山萬福寺,おうばくさんまんぷくじ,京都府宇治市,34.91430639999999,135.8060418,19,https://japan-heritage.bunka.go.jp/ja/datas/cache/images/2022/08/10/500x343_2ae395417f98b42be3d881be00011165_f187c97e9fa279fb02a590701aec4426357cefd8.jpg
252,9,12,https://japan-heritage.bunka.go.jp/ja/culturalproperties/result/465/,未指定,名水汲み上げの儀,,京都府宇治市,,,,
253,9,13,https://japan-heritage.bunka.go.jp/ja/culturalproperties/result/467/,未指定,茶壷口切の儀,,京都府宇治市,,,,
254,9,14,https://japan-heritage.bunka.go.jp/ja/culturalproperties/result/469/,未指定,茶筅塚供養の儀,,京都府宇治市,,,,
255,9,15,https://japan-heritage.bunka.go.jp/ja/culturalproperties/result/471/,国重要文化的景観,京都府茶業研究所付属茶園,きょうとふちゃぎょうけんきゅうじょふぞくちゃえん,京都府宇治市,34.88138900000001,135.81179199999997,19,https://japan-heritage.bunka.go.jp/ja/datas/cache/images/2022/08/10/500x343_2ae395417f98b42be3d881be00011165_afde9b3ae47f6f3b09b2c80a9da1b6a0d4e87441.jpg
256,9,16,https://japan-heritage.bunka.go.jp/ja/culturalproperties/result/473/,重文(本殿、木造莵道稚郎子命坐像),宇治神社,うじじんじゃ,京都府宇治市,34.89104800000002,135.810701,19,https://japan-heritage.bunka.go.jp/ja/datas/cache/images/2022/08/10/500x343_2ae395417f98b42be3d881be00011165_2bf2719253b0730be32573ae66f04ac8aaeb8821.jpg
257,9,17,https://japan-heritage.bunka.go.jp/ja/culturalproperties/result/475/,国宝(本殿、拝殿等)/重文(本殿扉絵),宇治上神社,うじがみじんじゃ,京都府宇治市,34.892068,135.81143900000006,19,https://japan-heritage.bunka.go.jp/ja/datas/cache/images/2022/08/10/500x343_2ae395417f98b42be3d881be00011165_8376283e23e0135f9e48c18f3a2eb1f653cbeb84.jpg
258,9,18,https://japan-heritage.bunka.go.jp/ja/culturalproperties/result/477/,未指定,小倉地区の茶畑,,京都府宇治市,,,,
259,9,19,https://japan-heritage.bunka.go.jp/ja/culturalproperties/result/479/,八幡市域：府景観資産、城陽市域：府景観資産、 久御山町域：府景観資産申請予定,流れ橋と両岸上津屋・浜台の「浜茶」,,京都府城陽市京都府八幡市京都府久御山町,,,,
260,9,20,https://japan-heritage.bunka.go.jp/ja/culturalproperties/result/481/,府景観資産,飯岡の茶畑,,京都府京田辺市,,,,
261,9,21,https://japan-heritage.bunka.go.jp/ja/culturalproperties/result/483/,国宝（五重塔）/重文（文殊堂、木造十一面観音立像など）,海住山寺,かいじゅうせんじ,京都府木津川市,34.74545560000001,135.81701399999994,19,https://japan-heritage.bunka.go.jp/ja/datas/cache/images/2022/08/10/500x343_2ae395417f98b42be3d881be00011165_e91991b32999be97a1b6813340c2dacd6d5b69e6.jpg
262,9,22,https://japan-heritage.bunka.go.jp/ja/culturalproperties/result/485/,未指定,上狛茶問屋街,,京都府木津川市,34.74545560000001,135.81701399999994,19,https://japan-heritage.bunka.go.jp/ja/datas/cache/images/2022/08/10/500x343_2ae395417f98b42be3d881be00011165_98d281b82da5a9c53f265b3435f4a67f9df0b330.jpg
263,9,23,https://japan-heritage.bunka.go.jp/ja/culturalproperties/result/487/,未指定,京都府立木津高等学校付属茶園、製茶工場,,京都府木津川市,34.738498000000014,135.830741,18,https://japan-heritage.bunka.go.jp/ja/datas/cache/images/2022/08/10/500x343_2ae395417f98b42be3d881be00011165_9ec905722c7e02a5d468a45e49192ab1be4cf06d.jpg
264,9,24,https://japan-heritage.bunka.go.jp/ja/culturalproperties/result/489/,未指定,多賀の「森の茶園」,,京都府井手町,,,,
265,9,25,https://japan-heritage.bunka.go.jp/ja/culturalproperties/result/491/,府景観資産、町指定文化財,永谷宗円生家,,京都府宇治田原町,34.84806590000001,135.90288259999988,18,https://japan-heritage.bunka.go.jp/ja/datas/cache/images/2022/08/10/500x343_2ae395417f98b42be3d881be00011165_a585d3726732626425fb208e7efdea48028a4cb5.jpg
266,9,26,https://japan-heritage.bunka.go.jp/ja/culturalproperties/result/493/,府景観資産(湯屋谷の茶畑),湯屋谷の茶畑、茶農家、茶問屋の街並み,,京都府宇治田原町,34.85208170000004,135.89955189999998,18,https://japan-heritage.bunka.go.jp/ja/datas/cache/images/2022/08/10/500x343_2ae395417f98b42be3d881be00011165_e94d6a3367a6692188a3db1b89f29030ea9c4696.jpg
267,9,27,https://japan-heritage.bunka.go.jp/ja/culturalproperties/result/495/,未指定,笠置有市の茶畑・索道台跡,,京都府笠置町,34.76354980000002,135.95089840000003,18,https://japan-heritage.bunka.go.jp/ja/datas/cache/images/2022/08/10/500x343_2ae395417f98b42be3d881be00011165_c6c70cd9a490f8d09f055ff35e436a0783b4ef73.jpg
268,9,28,https://japan-heritage.bunka.go.jp/ja/culturalproperties/result/497/,府景観資産、文化的景観（原山）,湯船・原山の茶畑,,京都府和束町,,,,
269,9,29,https://japan-heritage.bunka.go.jp/ja/culturalproperties/result/499/,重文(多宝塔、宝篋印塔、木造弥勒菩薩坐像など)、 境内は国史跡,鷲峰山　金胎寺,じゅうぶざん　こんたいじ,京都府和束町,34.8292315,135.90939579999997,18,https://japan-heritage.bunka.go.jp/ja/datas/cache/images/2022/08/10/500x343_2ae395417f98b42be3d881be00011165_9245704247bcc2f3a01cf9ed4a6f23b8ba03f9e0.jpg
270,9,30,https://japan-heritage.bunka.go.jp/ja/culturalproperties/result/501/,府景観資産(石寺、撰原、釜塚)、府文化的景観,石寺・白栖・撰原・釜塚の茶畑,,京都府和束町,,,,
271,9,31,https://japan-heritage.bunka.go.jp/ja/culturalproperties/result/503/,未指定,稲八妻医師茶園,,京都府精華町,,,,
272,9,32,https://japan-heritage.bunka.go.jp/ja/culturalproperties/result/505/,府景観資産、府文化的景観,童仙房・高尾・田山・今山の茶畑,,京都府南山城村,,,,
273,9,33,https://japan-heritage.bunka.go.jp/ja/culturalproperties/result/507/,府指定無形民俗文化財,宇治茶手もみ製茶技術,,京都府宇治市京都府宇治田原町,,,,
